{
   "type": "FeatureCollection",
   "features": [
  {
    "type": "Feature",
    "geometry": {
       "type": "Point",
       "coordinates":  [ -79.27492,43.80016 ]
    },
    "properties": {
    "Asset ID":"HY144056",
    "Address":"33 DUNSDALE SQ",
    "District":"D4 - Scarborough"
    }
  },
  {
    "type": "Feature",
    "geometry": {
       "type": "Point",
       "coordinates":  [ -79.30112,43.76347 ]
    },
    "properties": {
    "Asset ID":"HY137362",
    "Address":"CONTINENTAL WARDEN S E 8m SOUTH OF CONTINENTAL PL AT EAST SIDE OF WARDEN AVE",
    "District":"D4 - Scarborough"
    }
  },
  {
    "type": "Feature",
    "geometry": {
       "type": "Point",
       "coordinates":  [ -79.39715,43.63447 ]
    },
    "properties": {
    "Asset ID":"HY9332",
    "Address":"9 EIREANN QUAY 3RD SOUTH OF QUEENS QUAY W",
    "District":"D1 - Toronto-East York"
    }
  },
  {
    "type": "Feature",
    "geometry": {
       "type": "Point",
       "coordinates":  [ -79.30168,43.77301 ]
    },
    "properties": {
    "Asset ID":"HY139672",
    "Address":"SCARDEN AVE 35 ACROSS",
    "District":"D4 - Scarborough"
    }
  },
  {
    "type": "Feature",
    "geometry": {
       "type": "Point",
       "coordinates":  [ -79.45577,43.73288 ]
    },
    "properties": {
    "Asset ID":"HY4035365",
    "Address":"693 WILSON AVE",
    "District":"D3 - North York"
    }
  },
  {
    "type": "Feature",
    "geometry": {
       "type": "Point",
       "coordinates":  [ -79.46406,43.73701 ]
    },
    "properties": {
    "Asset ID":"HY4006848",
    "Address":"68 HOME RD",
    "District":"D3 - North York"
    }
  },
  {
    "type": "Feature",
    "geometry": {
       "type": "Point",
       "coordinates":  [ -79.32771,43.77625 ]
    },
    "properties": {
    "Asset ID":"HY4028142",
    "Address":"26 HAZELNUT CRES",
    "District":"D3 - North York"
    }
  },
  {
    "type": "Feature",
    "geometry": {
       "type": "Point",
       "coordinates":  [ -79.47285,43.65367 ]
    },
    "properties": {
    "Asset ID":"HY1359937",
    "Address":"46 BIRCHVIEW CRES",
    "District":"D2 - Etobicoke - York"
    }
  },
  {
    "type": "Feature",
    "geometry": {
       "type": "Point",
       "coordinates":  [ -79.47632,43.64652 ]
    },
    "properties": {
    "Asset ID":"HY1362526",
    "Address":"21 DURIE ST",
    "District":"D2 - Etobicoke - York"
    }
  },
  {
    "type": "Feature",
    "geometry": {
       "type": "Point",
       "coordinates":  [ -79.44334,43.70270 ]
    },
    "properties": {
    "Asset ID":"HY897",
    "Address":"932 CASTLEFIELD AVE",
    "District":"D3 - North York"
    }
  },
  {
    "type": "Feature",
    "geometry": {
       "type": "Point",
       "coordinates":  [ -79.43621,43.72510 ]
    },
    "properties": {
    "Asset ID":"HY4033436",
    "Address":"46 RIDGEVALE DR",
    "District":"D3 - North York"
    }
  },
  {
    "type": "Feature",
    "geometry": {
       "type": "Point",
       "coordinates":  [ -79.30902,43.74963 ]
    },
    "properties": {
    "Asset ID":"HY128667",
    "Address":"49 LYNVALLEY CRES",
    "District":"D4 - Scarborough"
    }
  },
  {
    "type": "Feature",
    "geometry": {
       "type": "Point",
       "coordinates":  [ -79.30227,43.76284 ]
    },
    "properties": {
    "Asset ID":"HY143018",
    "Address":"31 BUDEA CRES",
    "District":"D4 - Scarborough"
    }
  },
  {
    "type": "Feature",
    "geometry": {
       "type": "Point",
       "coordinates":  [ -79.38622,43.63903 ]
    },
    "properties": {
    "Asset ID":"HY1361735",
    "Address":"270 QUEENS QUAY W",
    "District":"D1 - Toronto-East York"
    }
  },
  {
    "type": "Feature",
    "geometry": {
       "type": "Point",
       "coordinates":  [ -79.38872,43.64027 ]
    },
    "properties": {
    "Asset ID":"HY1362642",
    "Address":"OPP 300 BREMNER BLVD ON VAN DE WATER CRES NE CORNER OF BREMNER BLVD AND VAN DE WATER CRES",
    "District":"D1 - Toronto-East York"
    }
  },
  {
    "type": "Feature",
    "geometry": {
       "type": "Point",
       "coordinates":  [ -79.26991,43.69076 ]
    },
    "properties": {
    "Asset ID":"HY132647",
    "Address":"37 MANDERLEY DR",
    "District":"D4 - Scarborough"
    }
  },
  {
    "type": "Feature",
    "geometry": {
       "type": "Point",
       "coordinates":  [ -79.31450,43.81141 ]
    },
    "properties": {
    "Asset ID":"HY132860",
    "Address":"43 AMBERCROFT BLVD",
    "District":"D4 - Scarborough"
    }
  },
  {
    "type": "Feature",
    "geometry": {
       "type": "Point",
       "coordinates":  [ -79.41125,43.64743 ]
    },
    "properties": {
    "Asset ID":"HY1362755",
    "Address":"124 ROBINSON ST",
    "District":"D1 - Toronto-East York"
    }
  },
  {
    "type": "Feature",
    "geometry": {
       "type": "Point",
       "coordinates":  [ -79.36544,43.78462 ]
    },
    "properties": {
    "Asset ID":"HY4032378",
    "Address":"25 COBBLESTONE DR",
    "District":"D3 - North York"
    }
  },
  {
    "type": "Feature",
    "geometry": {
       "type": "Point",
       "coordinates":  [ -79.25618,43.72694 ]
    },
    "properties": {
    "Asset ID":"HY142113",
    "Address":"12 WOLFE AVE",
    "District":"D4 - Scarborough"
    }
  },
  {
    "type": "Feature",
    "geometry": {
       "type": "Point",
       "coordinates":  [ -79.42890,43.63781 ]
    },
    "properties": {
    "Asset ID":"HY1356106",
    "Address":"124 TYNDALL AVE",
    "District":"D1 - Toronto-East York"
    }
  },
  {
    "type": "Feature",
    "geometry": {
       "type": "Point",
       "coordinates":  [ -79.56940,43.75756 ]
    },
    "properties": {
    "Asset ID":"HY4010846",
    "Address":"18 SAN ANTONIOWAY",
    "District":"D2 - Etobicoke - York"
    }
  },
  {
    "type": "Feature",
    "geometry": {
       "type": "Point",
       "coordinates":  [ -79.42426,43.70620 ]
    },
    "properties": {
    "Asset ID":"HY22582",
    "Address":"645 CASTLEFIELD AVE ON CHAPLIN CRES 1ST NORTH OF ROSELAWN AVE ON WEST SIDE",
    "District":"D3 - North York"
    }
  },
  {
    "type": "Feature",
    "geometry": {
       "type": "Point",
       "coordinates":  [ -79.29173,43.82049 ]
    },
    "properties": {
    "Asset ID":"HY134022",
    "Address":"272 PORT ROYAL TRL",
    "District":"D4 - Scarborough"
    }
  },
  {
    "type": "Feature",
    "geometry": {
       "type": "Point",
       "coordinates":  [ -79.50514,43.72965 ]
    },
    "properties": {
    "Asset ID":"HY4028302",
    "Address":"24 PEACHAM CRES",
    "District":"D3 - North York"
    }
  },
  {
    "type": "Feature",
    "geometry": {
       "type": "Point",
       "coordinates":  [ -79.42425,43.69800 ]
    },
    "properties": {
    "Asset ID":"HY1353780",
    "Address":"1719 BATHURST ST",
    "District":"D1 - Toronto-East York"
    }
  },
  {
    "type": "Feature",
    "geometry": {
       "type": "Point",
       "coordinates":  [ -79.57955,43.66364 ]
    },
    "properties": {
    "Asset ID":"HY2004324",
    "Address":"23 HAGERSVILLE CRT",
    "District":"D2 - Etobicoke - York"
    }
  },
  {
    "type": "Feature",
    "geometry": {
       "type": "Point",
       "coordinates":  [ -79.61046,43.75590 ]
    },
    "properties": {
    "Asset ID":"HY2001488",
    "Address":"6793 6823 STEELES AVE W",
    "District":"D2 - Etobicoke - York"
    }
  },
  {
    "type": "Feature",
    "geometry": {
       "type": "Point",
       "coordinates":  [ -79.28598,43.68570 ]
    },
    "properties": {
    "Asset ID":"HY137500",
    "Address":"361 VICTORIA PARK AVE",
    "District":"D4 - Scarborough"
    }
  },
  {
    "type": "Feature",
    "geometry": {
       "type": "Point",
       "coordinates":  [ -79.52533,43.74705 ]
    },
    "properties": {
    "Asset ID":"HY20175",
    "Address":"420 EDDYSTONE AVE",
    "District":"D2 - Etobicoke - York"
    }
  },
  {
    "type": "Feature",
    "geometry": {
       "type": "Point",
       "coordinates":  [ -79.42163,43.65137 ]
    },
    "properties": {
    "Asset ID":"HY1362606",
    "Address":"324 OSSINGTON AVE",
    "District":"D1 - Toronto-East York"
    }
  },
  {
    "type": "Feature",
    "geometry": {
       "type": "Point",
       "coordinates":  [ -79.57480,43.63695 ]
    },
    "properties": {
    "Asset ID":"HY2006356",
    "Address":"61 MARKLAND DR",
    "District":"D2 - Etobicoke - York"
    }
  },
  {
    "type": "Feature",
    "geometry": {
       "type": "Point",
       "coordinates":  [ -79.38703,43.65117 ]
    },
    "properties": {
    "Asset ID":"HY1359640",
    "Address":"330 UNIVERSITY AVE",
    "District":"D1 - Toronto-East York"
    }
  },
  {
    "type": "Feature",
    "geometry": {
       "type": "Point",
       "coordinates":  [ -79.30662,43.75571 ]
    },
    "properties": {
    "Asset ID":"HY141658",
    "Address":"DEWEY ARCHWOOD N E",
    "District":"D4 - Scarborough"
    }
  },
  {
    "type": "Feature",
    "geometry": {
       "type": "Point",
       "coordinates":  [ -79.44812,43.63706 ]
    },
    "properties": {
    "Asset ID":"HY1354016",
    "Address":"1601 LAKE SHORE BLVD W",
    "District":"D1 - Toronto-East York"
    }
  },
  {
    "type": "Feature",
    "geometry": {
       "type": "Point",
       "coordinates":  [ -79.45350,43.70984 ]
    },
    "properties": {
    "Asset ID":"HY4040394",
    "Address":"70m West 48 GLENBROOK AVE",
    "District":"D3 - North York"
    }
  },
  {
    "type": "Feature",
    "geometry": {
       "type": "Point",
       "coordinates":  [ -79.54994,43.60096 ]
    },
    "properties": {
    "Asset ID":"HY2009979",
    "Address":"12 DELMA DR",
    "District":"D2 - Etobicoke - York"
    }
  },
  {
    "type": "Feature",
    "geometry": {
       "type": "Point",
       "coordinates":  [ -79.52633,43.61362 ]
    },
    "properties": {
    "Asset ID":"HY2010237",
    "Address":"78 TORLAKE CRES",
    "District":"D2 - Etobicoke - York"
    }
  },
  {
    "type": "Feature",
    "geometry": {
       "type": "Point",
       "coordinates":  [ -79.29578,43.80537 ]
    },
    "properties": {
    "Asset ID":"HY139180",
    "Address":"45 MILLIKEN BLVD",
    "District":"D4 - Scarborough"
    }
  },
  {
    "type": "Feature",
    "geometry": {
       "type": "Point",
       "coordinates":  [ -79.43099,43.68355 ]
    },
    "properties": {
    "Asset ID":"HY318",
    "Address":"14 NORMANNA AVE",
    "District":"D1 - Toronto-East York"
    }
  },
  {
    "type": "Feature",
    "geometry": {
       "type": "Point",
       "coordinates":  [ -79.47758,43.66658 ]
    },
    "properties": {
    "Asset ID":"HY1354334",
    "Address":"144 MARIA ST",
    "District":"D2 - Etobicoke - York"
    }
  },
  {
    "type": "Feature",
    "geometry": {
       "type": "Point",
       "coordinates":  [ -79.53815,43.62292 ]
    },
    "properties": {
    "Asset ID":"HY2010330",
    "Address":"55 NORTH QUEEN ST",
    "District":"D2 - Etobicoke - York"
    }
  },
  {
    "type": "Feature",
    "geometry": {
       "type": "Point",
       "coordinates":  [ -79.42029,43.64495 ]
    },
    "properties": {
    "Asset ID":"HY20521",
    "Address":"31 BROOKFIELD ST",
    "District":"D1 - Toronto-East York"
    }
  },
  {
    "type": "Feature",
    "geometry": {
       "type": "Point",
       "coordinates":  [ -79.46774,43.69502 ]
    },
    "properties": {
    "Asset ID":"HY1676",
    "Address":"54 STRATHNAIRN AVE",
    "District":"D2 - Etobicoke - York"
    }
  },
  {
    "type": "Feature",
    "geometry": {
       "type": "Point",
       "coordinates":  [ -79.42879,43.66663 ]
    },
    "properties": {
    "Asset ID":"HY1358362",
    "Address":"485 CONCORD AVE",
    "District":"D1 - Toronto-East York"
    }
  },
  {
    "type": "Feature",
    "geometry": {
       "type": "Point",
       "coordinates":  [ -79.61773,43.73714 ]
    },
    "properties": {
    "Asset ID":"HY2651471",
    "Address":"240 HUMBERLINE DR ACROSS",
    "District":"D2 - Etobicoke - York"
    }
  },
  {
    "type": "Feature",
    "geometry": {
       "type": "Point",
       "coordinates":  [ -79.54917,43.64637 ]
    },
    "properties": {
    "Asset ID":"HY2005604",
    "Address":"29 BURNELM DR",
    "District":"D2 - Etobicoke - York"
    }
  },
  {
    "type": "Feature",
    "geometry": {
       "type": "Point",
       "coordinates":  [ -79.36505,43.71646 ]
    },
    "properties": {
    "Asset ID":"HY3003794",
    "Address":"588 BROADWAY AVE",
    "District":"D3 - North York"
    }
  },
  {
    "type": "Feature",
    "geometry": {
       "type": "Point",
       "coordinates":  [ -79.46182,43.69555 ]
    },
    "properties": {
    "Asset ID":"HY1856",
    "Address":"68 SNIDER AVE",
    "District":"D3 - North York"
    }
  },
  {
    "type": "Feature",
    "geometry": {
       "type": "Point",
       "coordinates":  [ -79.47461,43.63709 ]
    },
    "properties": {
    "Asset ID":"HY1362823",
    "Address":"2 RIPLEY AVE",
    "District":"D2 - Etobicoke - York"
    }
  },
  {
    "type": "Feature",
    "geometry": {
       "type": "Point",
       "coordinates":  [ -79.36054,43.74187 ]
    },
    "properties": {
    "Asset ID":"HY4029441",
    "Address":"28 RIPPLETON RD  ON EAST SIDE OF GRANGEMILL CRES",
    "District":"D3 - North York"
    }
  },
  {
    "type": "Feature",
    "geometry": {
       "type": "Point",
       "coordinates":  [ -79.31103,43.81266 ]
    },
    "properties": {
    "Asset ID":"HY133926",
    "Address":"57 MORBANK DR",
    "District":"D4 - Scarborough"
    }
  },
  {
    "type": "Feature",
    "geometry": {
       "type": "Point",
       "coordinates":  [ -79.47308,43.69609 ]
    },
    "properties": {
    "Asset ID":"HY1912",
    "Address":"26M NORTH 114 RICHARDSON AVE",
    "District":"D2 - Etobicoke - York"
    }
  },
  {
    "type": "Feature",
    "geometry": {
       "type": "Point",
       "coordinates":  [ -79.20720,43.80655 ]
    },
    "properties": {
    "Asset ID":"HY137926",
    "Address":"18 MOONBEAM GRV",
    "District":"D4 - Scarborough"
    }
  },
  {
    "type": "Feature",
    "geometry": {
       "type": "Point",
       "coordinates":  [ -79.41164,43.67512 ]
    },
    "properties": {
    "Asset ID":"HY1360555",
    "Address":"1 DARTNELL AVE",
    "District":"D1 - Toronto-East York"
    }
  },
  {
    "type": "Feature",
    "geometry": {
       "type": "Point",
       "coordinates":  [ -79.45184,43.64765 ]
    },
    "properties": {
    "Asset ID":"HY1359292",
    "Address":"162 GEOFFREY ST",
    "District":"D1 - Toronto-East York"
    }
  },
  {
    "type": "Feature",
    "geometry": {
       "type": "Point",
       "coordinates":  [ -79.33965,43.81597 ]
    },
    "properties": {
    "Asset ID":"HY127781",
    "Address":"STEELES VICTORIA PK E2  125m EAST OF VICTORIA PARK AVE",
    "District":"D4 - Scarborough"
    }
  },
  {
    "type": "Feature",
    "geometry": {
       "type": "Point",
       "coordinates":  [ -79.43995,43.72173 ]
    },
    "properties": {
    "Asset ID":"HY4034234",
    "Address":"65 LYNNHAVEN RD AT 34 RONDALE BLVD",
    "District":"D3 - North York"
    }
  },
  {
    "type": "Feature",
    "geometry": {
       "type": "Point",
       "coordinates":  [ -79.50462,43.74032 ]
    },
    "properties": {
    "Asset ID":"HY4005991",
    "Address":"88 THURROCK RD",
    "District":"D3 - North York"
    }
  },
  {
    "type": "Feature",
    "geometry": {
       "type": "Point",
       "coordinates":  [ -79.50155,43.70202 ]
    },
    "properties": {
    "Asset ID":"HY4024596",
    "Address":"7 MARTINI DR",
    "District":"D2 - Etobicoke - York"
    }
  },
  {
    "type": "Feature",
    "geometry": {
       "type": "Point",
       "coordinates":  [ -79.45683,43.69855 ]
    },
    "properties": {
    "Asset ID":"HY1826",
    "Address":"42M EAST 76 MIRANDA AVE",
    "District":"D3 - North York"
    }
  },
  {
    "type": "Feature",
    "geometry": {
       "type": "Point",
       "coordinates":  [ -79.42553,43.67800 ]
    },
    "properties": {
    "Asset ID":"HY1356642",
    "Address":"82 TYRREL AVE",
    "District":"D1 - Toronto-East York"
    }
  },
  {
    "type": "Feature",
    "geometry": {
       "type": "Point",
       "coordinates":  [ -79.48722,43.66058 ]
    },
    "properties": {
    "Asset ID":"HY1794",
    "Address":"14 HANLEY ST",
    "District":"D2 - Etobicoke - York"
    }
  },
  {
    "type": "Feature",
    "geometry": {
       "type": "Point",
       "coordinates":  [ -79.32246,43.78314 ]
    },
    "properties": {
    "Asset ID":"HY127930",
    "Address":"28 SESAME ST",
    "District":"D4 - Scarborough"
    }
  },
  {
    "type": "Feature",
    "geometry": {
       "type": "Point",
       "coordinates":  [ -79.23004,43.76920 ]
    },
    "properties": {
    "Asset ID":"HY143521",
    "Address":"170 PANDORA CRCL",
    "District":"D4 - Scarborough"
    }
  },
  {
    "type": "Feature",
    "geometry": {
       "type": "Point",
       "coordinates":  [ -79.55881,43.62696 ]
    },
    "properties": {
    "Asset ID":"HY2011399",
    "Address":"195 THE WEST MALL",
    "District":"D2 - Etobicoke - York"
    }
  },
  {
    "type": "Feature",
    "geometry": {
       "type": "Point",
       "coordinates":  [ -79.54787,43.63058 ]
    },
    "properties": {
    "Asset ID":"HY2005361",
    "Address":"5555 DUNDAS ST W",
    "District":"D2 - Etobicoke - York"
    }
  },
  {
    "type": "Feature",
    "geometry": {
       "type": "Point",
       "coordinates":  [ -79.33875,43.75753 ]
    },
    "properties": {
    "Asset ID":"HY4005992",
    "Address":"YORK MILLS RD BETWEEN LOCHINVAR CRES AND LAURENTIDE DR ON S  SIDE  340m West 1200 YORK MILLS RD",
    "District":"D3 - North York"
    }
  },
  {
    "type": "Feature",
    "geometry": {
       "type": "Point",
       "coordinates":  [ -79.44255,43.64785 ]
    },
    "properties": {
    "Asset ID":"HY1360342",
    "Address":"35 WABASH AVE 1ST WEST OF LUKOW TER ON SOUTH SIDE OF THE ROAD",
    "District":"D1 - Toronto-East York"
    }
  },
  {
    "type": "Feature",
    "geometry": {
       "type": "Point",
       "coordinates":  [ -79.39358,43.64591 ]
    },
    "properties": {
    "Asset ID":"HY1359475",
    "Address":"3 CHARLOTTE ST 1ST NORTH OF KING ST W",
    "District":"D1 - Toronto-East York"
    }
  },
  {
    "type": "Feature",
    "geometry": {
       "type": "Point",
       "coordinates":  [ -79.37680,43.65084 ]
    },
    "properties": {
    "Asset ID":"HY1353688",
    "Address":"30 ADELAIDE ST E",
    "District":"D1 - Toronto-East York"
    }
  },
  {
    "type": "Feature",
    "geometry": {
       "type": "Point",
       "coordinates":  [ -79.39378,43.64644 ]
    },
    "properties": {
    "Asset ID":"HY1359480",
    "Address":"11 CHARLOTTE ST",
    "District":"D1 - Toronto-East York"
    }
  },
  {
    "type": "Feature",
    "geometry": {
       "type": "Point",
       "coordinates":  [ -79.53038,43.63615 ]
    },
    "properties": {
    "Asset ID":"HY2005709",
    "Address":"363 OLIVEWOOD RD",
    "District":"D2 - Etobicoke - York"
    }
  },
  {
    "type": "Feature",
    "geometry": {
       "type": "Point",
       "coordinates":  [ -79.36655,43.68412 ]
    },
    "properties": {
    "Asset ID":"HY27295",
    "Address":"550 BAYVIEW AVE",
    "District":"D1 - Toronto-East York"
    }
  },
  {
    "type": "Feature",
    "geometry": {
       "type": "Point",
       "coordinates":  [ -79.31630,43.71803 ]
    },
    "properties": {
    "Asset ID":"HY4013522",
    "Address":"245 BARTLEY DR",
    "District":"D3 - North York"
    }
  },
  {
    "type": "Feature",
    "geometry": {
       "type": "Point",
       "coordinates":  [ -79.37682,43.77125 ]
    },
    "properties": {
    "Asset ID":"HY4036979",
    "Address":"25 BURBANK DR ON ARROWSTOOK RD 1ST EAST OF BURBANK DR ON SOUTH SIDE OF THE ROAD",
    "District":"D3 - North York"
    }
  },
  {
    "type": "Feature",
    "geometry": {
       "type": "Point",
       "coordinates":  [ -79.44291,43.66271 ]
    },
    "properties": {
    "Asset ID":"HY1362490",
    "Address":"162 WALLACE AVE",
    "District":"D1 - Toronto-East York"
    }
  },
  {
    "type": "Feature",
    "geometry": {
       "type": "Point",
       "coordinates":  [ -79.43980,43.66180 ]
    },
    "properties": {
    "Asset ID":"HY21344",
    "Address":"708 BROCK AVE",
    "District":"D1 - Toronto-East York"
    }
  },
  {
    "type": "Feature",
    "geometry": {
       "type": "Point",
       "coordinates":  [ -79.40692,43.67952 ]
    },
    "properties": {
    "Asset ID":"HY1359822",
    "Address":"61 ARDWOLD GT",
    "District":"D1 - Toronto-East York"
    }
  },
  {
    "type": "Feature",
    "geometry": {
       "type": "Point",
       "coordinates":  [ -79.25628,43.80783 ]
    },
    "properties": {
    "Asset ID":"HY140835",
    "Address":"MIDDLEFIELD ORATOR S1  10m SOUTH OF ORATOR GT",
    "District":"D4 - Scarborough"
    }
  },
  {
    "type": "Feature",
    "geometry": {
       "type": "Point",
       "coordinates":  [ -79.22994,43.76328 ]
    },
    "properties": {
    "Asset ID":"HY144487",
    "Address":"ABBEVILLE RD 35",
    "District":"D4 - Scarborough"
    }
  },
  {
    "type": "Feature",
    "geometry": {
       "type": "Point",
       "coordinates":  [ -79.41404,43.65083 ]
    },
    "properties": {
    "Asset ID":"HY1362745",
    "Address":"2 GRACE ST",
    "District":"D1 - Toronto-East York"
    }
  },
  {
    "type": "Feature",
    "geometry": {
       "type": "Point",
       "coordinates":  [ -79.46861,43.66116 ]
    },
    "properties": {
    "Asset ID":"HY1357264",
    "Address":"218 HIGH PARK AVE",
    "District":"D2 - Etobicoke - York"
    }
  },
  {
    "type": "Feature",
    "geometry": {
       "type": "Point",
       "coordinates":  [ -79.40098,43.68219 ]
    },
    "properties": {
    "Asset ID":"HY1360016",
    "Address":"7 EDMUND AVE",
    "District":"D1 - Toronto-East York"
    }
  },
  {
    "type": "Feature",
    "geometry": {
       "type": "Point",
       "coordinates":  [ -79.40715,43.64168 ]
    },
    "properties": {
    "Asset ID":"HY1358031",
    "Address":"680 WELLINGTON ST W",
    "District":"D1 - Toronto-East York"
    }
  },
  {
    "type": "Feature",
    "geometry": {
       "type": "Point",
       "coordinates":  [ -79.19186,43.75258 ]
    },
    "properties": {
    "Asset ID":"HY143851",
    "Address":"4 DEARHAM WOOD",
    "District":"D4 - Scarborough"
    }
  },
  {
    "type": "Feature",
    "geometry": {
       "type": "Point",
       "coordinates":  [ -79.40193,43.76095 ]
    },
    "properties": {
    "Asset ID":"HY4034950",
    "Address":"138 GLENDORA AVE",
    "District":"D3 - North York"
    }
  },
  {
    "type": "Feature",
    "geometry": {
       "type": "Point",
       "coordinates":  [ -79.36686,43.71416 ]
    },
    "properties": {
    "Asset ID":"HY3003769",
    "Address":"150 DONLEA DR",
    "District":"D3 - North York"
    }
  },
  {
    "type": "Feature",
    "geometry": {
       "type": "Point",
       "coordinates":  [ -79.32940,43.75016 ]
    },
    "properties": {
    "Asset ID":"HY4015273",
    "Address":"20 ALDENHAM CRES",
    "District":"D3 - North York"
    }
  },
  {
    "type": "Feature",
    "geometry": {
       "type": "Point",
       "coordinates":  [ -79.50691,43.73339 ]
    },
    "properties": {
    "Asset ID":"HY4027997",
    "Address":"65 TROUTBROOKE DR",
    "District":"D3 - North York"
    }
  },
  {
    "type": "Feature",
    "geometry": {
       "type": "Point",
       "coordinates":  [ -79.55316,43.60651 ]
    },
    "properties": {
    "Asset ID":"HY2010450",
    "Address":"39 SAVONA DR",
    "District":"D2 - Etobicoke - York"
    }
  },
  {
    "type": "Feature",
    "geometry": {
       "type": "Point",
       "coordinates":  [ -79.32225,43.75202 ]
    },
    "properties": {
    "Asset ID":"HY4019764",
    "Address":"49 RANCHDALE CRES",
    "District":"D3 - North York"
    }
  },
  {
    "type": "Feature",
    "geometry": {
       "type": "Point",
       "coordinates":  [ -79.20281,43.74817 ]
    },
    "properties": {
    "Asset ID":"HY142715",
    "Address":"27 ROWATSON RD",
    "District":"D4 - Scarborough"
    }
  },
  {
    "type": "Feature",
    "geometry": {
       "type": "Point",
       "coordinates":  [ -79.19640,43.76050 ]
    },
    "properties": {
    "Asset ID":"HY10543",
    "Address":"KINGSTON RD 4222",
    "District":"D4 - Scarborough"
    }
  },
  {
    "type": "Feature",
    "geometry": {
       "type": "Point",
       "coordinates":  [ -79.44037,43.73774 ]
    },
    "properties": {
    "Asset ID":"HY4042944",
    "Address":"83 ALLINGHAM GDNS",
    "District":"D3 - North York"
    }
  },
  {
    "type": "Feature",
    "geometry": {
       "type": "Point",
       "coordinates":  [ -79.39795,43.63613 ]
    },
    "properties": {
    "Asset ID":"HY1362757",
    "Address":"627A QUEENS QUAY W",
    "District":"D1 - Toronto-East York"
    }
  },
  {
    "type": "Feature",
    "geometry": {
       "type": "Point",
       "coordinates":  [ -79.45117,43.77938 ]
    },
    "properties": {
    "Asset ID":"HY4002431",
    "Address":"18 ANTIBES DR",
    "District":"D3 - North York"
    }
  },
  {
    "type": "Feature",
    "geometry": {
       "type": "Point",
       "coordinates":  [ -79.28063,43.69738 ]
    },
    "properties": {
    "Asset ID":"HY132761",
    "Address":"105 ROBINSON AVE",
    "District":"D4 - Scarborough"
    }
  },
  {
    "type": "Feature",
    "geometry": {
       "type": "Point",
       "coordinates":  [ -79.36533,43.71808 ]
    },
    "properties": {
    "Asset ID":"HY3003742",
    "Address":"110 BRENTCLIFFE RD",
    "District":"D3 - North York"
    }
  },
  {
    "type": "Feature",
    "geometry": {
       "type": "Point",
       "coordinates":  [ -79.26982,43.69631 ]
    },
    "properties": {
    "Asset ID":"HY135653",
    "Address":"KIMRIDGE AVE 20",
    "District":"D4 - Scarborough"
    }
  },
  {
    "type": "Feature",
    "geometry": {
       "type": "Point",
       "coordinates":  [ -79.48535,43.69412 ]
    },
    "properties": {
    "Asset ID":"HY2672",
    "Address":"121 TRETHEWEY DR",
    "District":"D2 - Etobicoke - York"
    }
  },
  {
    "type": "Feature",
    "geometry": {
       "type": "Point",
       "coordinates":  [ -79.39939,43.64320 ]
    },
    "properties": {
    "Asset ID":"HY1361112",
    "Address":"520 WELLINGTON ST W",
    "District":"D1 - Toronto-East York"
    }
  },
  {
    "type": "Feature",
    "geometry": {
       "type": "Point",
       "coordinates":  [ -79.47137,43.66357 ]
    },
    "properties": {
    "Asset ID":"HY1354533",
    "Address":"404 QUEBEC AVE",
    "District":"D2 - Etobicoke - York"
    }
  },
  {
    "type": "Feature",
    "geometry": {
       "type": "Point",
       "coordinates":  [ -79.33036,43.81305 ]
    },
    "properties": {
    "Asset ID":"HY128251",
    "Address":"46 ELLENHALL SQ",
    "District":"D4 - Scarborough"
    }
  },
  {
    "type": "Feature",
    "geometry": {
       "type": "Point",
       "coordinates":  [ -79.54748,43.59240 ]
    },
    "properties": {
    "Asset ID":"HY2008345",
    "Address":"36 ENFIELD AVE",
    "District":"D2 - Etobicoke - York"
    }
  },
  {
    "type": "Feature",
    "geometry": {
       "type": "Point",
       "coordinates":  [ -79.40413,43.67358 ]
    },
    "properties": {
    "Asset ID":"HY1361428",
    "Address":"630 HURON ST",
    "District":"D1 - Toronto-East York"
    }
  },
  {
    "type": "Feature",
    "geometry": {
       "type": "Point",
       "coordinates":  [ -79.32244,43.79917 ]
    },
    "properties": {
    "Asset ID":"HY137583",
    "Address":"88 BEVERLY GLEN BLVD",
    "District":"D4 - Scarborough"
    }
  },
  {
    "type": "Feature",
    "geometry": {
       "type": "Point",
       "coordinates":  [ -79.30181,43.75451 ]
    },
    "properties": {
    "Asset ID":"HY129576",
    "Address":"29 PRINCEMERE CRES",
    "District":"D4 - Scarborough"
    }
  },
  {
    "type": "Feature",
    "geometry": {
       "type": "Point",
       "coordinates":  [ -79.44551,43.70224 ]
    },
    "properties": {
    "Asset ID":"HY895",
    "Address":"968 CASTLEFIELD AVE",
    "District":"D3 - North York"
    }
  },
  {
    "type": "Feature",
    "geometry": {
       "type": "Point",
       "coordinates":  [ -79.22133,43.76765 ]
    },
    "properties": {
    "Asset ID":"HY144295",
    "Address":"14 CARDY PL",
    "District":"D4 - Scarborough"
    }
  },
  {
    "type": "Feature",
    "geometry": {
       "type": "Point",
       "coordinates":  [ -79.19122,43.74920 ]
    },
    "properties": {
    "Asset ID":"HY143806",
    "Address":"GUILDWOOD PKWY 238 ACR",
    "District":"D4 - Scarborough"
    }
  },
  {
    "type": "Feature",
    "geometry": {
       "type": "Point",
       "coordinates":  [ -79.42484,43.72814 ]
    },
    "properties": {
    "Asset ID":"HY4036859",
    "Address":"6 MARMION AVE",
    "District":"D3 - North York"
    }
  },
  {
    "type": "Feature",
    "geometry": {
       "type": "Point",
       "coordinates":  [ -79.49636,43.69513 ]
    },
    "properties": {
    "Asset ID":"HY4025873",
    "Address":"LA DOLCE VITA DR TOUCHSTONE DR 26M NORTH OF TOUCHSTONE DR",
    "District":"D2 - Etobicoke - York"
    }
  },
  {
    "type": "Feature",
    "geometry": {
       "type": "Point",
       "coordinates":  [ -79.31967,43.70522 ]
    },
    "properties": {
    "Asset ID":"HY3004957",
    "Address":"19 PRESTEIGN AVE",
    "District":"D1 - Toronto-East York"
    }
  },
  {
    "type": "Feature",
    "geometry": {
       "type": "Point",
       "coordinates":  [ -79.48684,43.65957 ]
    },
    "properties": {
    "Asset ID":"HY1806",
    "Address":"20 MONTYE AVE",
    "District":"D2 - Etobicoke - York"
    }
  },
  {
    "type": "Feature",
    "geometry": {
       "type": "Point",
       "coordinates":  [ -79.39185,43.63995 ]
    },
    "properties": {
    "Asset ID":"HY20555",
    "Address":"OPP 32 MARINER TER",
    "District":"D1 - Toronto-East York"
    }
  },
  {
    "type": "Feature",
    "geometry": {
       "type": "Point",
       "coordinates":  [ -79.31531,43.74157 ]
    },
    "properties": {
    "Asset ID":"HY4018831",
    "Address":"1448 LAWRENCE AVE E 1ST WEST OF CARNFORTH RD ON NORTH SIDE OF THE ROAD",
    "District":"D3 - North York"
    }
  },
  {
    "type": "Feature",
    "geometry": {
       "type": "Point",
       "coordinates":  [ -79.39993,43.64656 ]
    },
    "properties": {
    "Asset ID":"HY1358390",
    "Address":"30 MAUD ST",
    "District":"D1 - Toronto-East York"
    }
  },
  {
    "type": "Feature",
    "geometry": {
       "type": "Point",
       "coordinates":  [ -79.23925,43.77473 ]
    },
    "properties": {
    "Asset ID":"HY140477",
    "Address":"ELLESMERE 1950 S S ACROSS",
    "District":"D4 - Scarborough"
    }
  },
  {
    "type": "Feature",
    "geometry": {
       "type": "Point",
       "coordinates":  [ -79.36235,43.71512 ]
    },
    "properties": {
    "Asset ID":"HY3003762",
    "Address":"218 DONLEA DR",
    "District":"D3 - North York"
    }
  },
  {
    "type": "Feature",
    "geometry": {
       "type": "Point",
       "coordinates":  [ -79.27106,43.74008 ]
    },
    "properties": {
    "Asset ID":"HY138197",
    "Address":"893 KENNEDY RD",
    "District":"D4 - Scarborough"
    }
  },
  {
    "type": "Feature",
    "geometry": {
       "type": "Point",
       "coordinates":  [ -79.27372,43.73776 ]
    },
    "properties": {
    "Asset ID":"HY138681",
    "Address":"89 IONVIEW RD",
    "District":"D4 - Scarborough"
    }
  },
  {
    "type": "Feature",
    "geometry": {
       "type": "Point",
       "coordinates":  [ -79.43575,43.70096 ]
    },
    "properties": {
    "Asset ID":"HY1362118",
    "Address":"263 OLD FOREST HILL RD",
    "District":"D1 - Toronto-East York"
    }
  },
  {
    "type": "Feature",
    "geometry": {
       "type": "Point",
       "coordinates":  [ -79.45866,43.66857 ]
    },
    "properties": {
    "Asset ID":"HY1360251",
    "Address":"177 OSLER ST, ACROSS FROM LINDNER ST.",
    "District":"D2 - Etobicoke - York"
    }
  },
  {
    "type": "Feature",
    "geometry": {
       "type": "Point",
       "coordinates":  [ -79.37820,43.64420 ]
    },
    "properties": {
    "Asset ID":"HY1363078",
    "Address":"53 BAY ST",
    "District":"D1 - Toronto-East York"
    }
  },
  {
    "type": "Feature",
    "geometry": {
       "type": "Point",
       "coordinates":  [ -79.28279,43.69676 ]
    },
    "properties": {
    "Asset ID":"HY132711",
    "Address":"161 AUGUST AVE",
    "District":"D4 - Scarborough"
    }
  },
  {
    "type": "Feature",
    "geometry": {
       "type": "Point",
       "coordinates":  [ -79.29070,43.81154 ]
    },
    "properties": {
    "Asset ID":"HY140465",
    "Address":"MIDLAND AVE 3410 NORTH",
    "District":"D4 - Scarborough"
    }
  },
  {
    "type": "Feature",
    "geometry": {
       "type": "Point",
       "coordinates":  [ -79.32687,43.79784 ]
    },
    "properties": {
    "Asset ID":"HY137266",
    "Address":"105 HEATHERSIDE DR",
    "District":"D4 - Scarborough"
    }
  },
  {
    "type": "Feature",
    "geometry": {
       "type": "Point",
       "coordinates":  [ -79.48121,43.69249 ]
    },
    "properties": {
    "Asset ID":"HY2703",
    "Address":"70 CLEARVIEW HTS",
    "District":"D2 - Etobicoke - York"
    }
  },
  {
    "type": "Feature",
    "geometry": {
       "type": "Point",
       "coordinates":  [ -79.31797,43.78541 ]
    },
    "properties": {
    "Asset ID":"HY128762",
    "Address":"54 CASTLEMERE CRES",
    "District":"D4 - Scarborough"
    }
  },
  {
    "type": "Feature",
    "geometry": {
       "type": "Point",
       "coordinates":  [ -79.21745,43.80049 ]
    },
    "properties": {
    "Asset ID":"HY139863",
    "Address":"26 KESSACK CRT",
    "District":"D4 - Scarborough"
    }
  },
  {
    "type": "Feature",
    "geometry": {
       "type": "Point",
       "coordinates":  [ -79.48599,43.74241 ]
    },
    "properties": {
    "Asset ID":"HY4002709",
    "Address":"3262 KEELE ST",
    "District":"D3 - North York"
    }
  },
  {
    "type": "Feature",
    "geometry": {
       "type": "Point",
       "coordinates":  [ -79.27969,43.69632 ]
    },
    "properties": {
    "Asset ID":"HY132727",
    "Address":"106 NEWPORT AVE",
    "District":"D4 - Scarborough"
    }
  },
  {
    "type": "Feature",
    "geometry": {
       "type": "Point",
       "coordinates":  [ -79.39165,43.76493 ]
    },
    "properties": {
    "Asset ID":"HY4009819",
    "Address":"14 GRANLEA RD",
    "District":"D3 - North York"
    }
  },
  {
    "type": "Feature",
    "geometry": {
       "type": "Point",
       "coordinates":  [ -79.49239,43.70731 ]
    },
    "properties": {
    "Asset ID":"HY4030079",
    "Address":"43 SORLYN AVE",
    "District":"D2 - Etobicoke - York"
    }
  },
  {
    "type": "Feature",
    "geometry": {
       "type": "Point",
       "coordinates":  [ -79.49033,43.66343 ]
    },
    "properties": {
    "Asset ID":"HY1608",
    "Address":"558A JANE ST [SCHOOL ZONE]",
    "District":"D2 - Etobicoke - York"
    }
  },
  {
    "type": "Feature",
    "geometry": {
       "type": "Point",
       "coordinates":  [ -79.53869,43.61845 ]
    },
    "properties": {
    "Asset ID":"HY2010306",
    "Address":"1550 THE QUEENSWAY",
    "District":"D2 - Etobicoke - York"
    }
  },
  {
    "type": "Feature",
    "geometry": {
       "type": "Point",
       "coordinates":  [ -79.32480,43.81464 ]
    },
    "properties": {
    "Asset ID":"HY131367",
    "Address":"3325 WARDEN AVE (FIRE STA)Across 80M North of station at 75 BAMURGH CRCL",
    "District":"D4 - Scarborough"
    }
  },
  {
    "type": "Feature",
    "geometry": {
       "type": "Point",
       "coordinates":  [ -79.25282,43.76677 ]
    },
    "properties": {
    "Asset ID":"HY138649",
    "Address":"16 CAMLAC PL",
    "District":"D4 - Scarborough"
    }
  },
  {
    "type": "Feature",
    "geometry": {
       "type": "Point",
       "coordinates":  [ -79.32707,43.79859 ]
    },
    "properties": {
    "Asset ID":"HY137201",
    "Address":"128 HEATHERSIDE DR",
    "District":"D4 - Scarborough"
    }
  },
  {
    "type": "Feature",
    "geometry": {
       "type": "Point",
       "coordinates":  [ -79.45056,43.74970 ]
    },
    "properties": {
    "Asset ID":"HY4017391",
    "Address":"192 REINER RD",
    "District":"D3 - North York"
    }
  },
  {
    "type": "Feature",
    "geometry": {
       "type": "Point",
       "coordinates":  [ -79.54553,43.63733 ]
    },
    "properties": {
    "Asset ID":"HY2005440",
    "Address":"18 STATLER AVE",
    "District":"D2 - Etobicoke - York"
    }
  },
  {
    "type": "Feature",
    "geometry": {
       "type": "Point",
       "coordinates":  [ -79.42790,43.63383 ]
    },
    "properties": {
    "Asset ID":"HY1356390",
    "Address":"6 TYNDALL AVE",
    "District":"D1 - Toronto-East York"
    }
  },
  {
    "type": "Feature",
    "geometry": {
       "type": "Point",
       "coordinates":  [ -79.46899,43.73590 ]
    },
    "properties": {
    "Asset ID":"HY4006785",
    "Address":"121 HOME RD",
    "District":"D3 - North York"
    }
  },
  {
    "type": "Feature",
    "geometry": {
       "type": "Point",
       "coordinates":  [ -79.48059,43.65027 ]
    },
    "properties": {
    "Asset ID":"HY13335",
    "Address":"2330 BLOOR ST W",
    "District":"D2 - Etobicoke - York"
    }
  },
  {
    "type": "Feature",
    "geometry": {
       "type": "Point",
       "coordinates":  [ -79.48031,43.77280 ]
    },
    "properties": {
    "Asset ID":"HY4005605",
    "Address":"58m West 155 MARTIN ROSS AVE",
    "District":"D3 - North York"
    }
  },
  {
    "type": "Feature",
    "geometry": {
       "type": "Point",
       "coordinates":  [ -79.40776,43.72204 ]
    },
    "properties": {
    "Asset ID":"HY1358131",
    "Address":"90 CHERITAN AVE",
    "District":"D3 - North York"
    }
  },
  {
    "type": "Feature",
    "geometry": {
       "type": "Point",
       "coordinates":  [ -79.44286,43.73471 ]
    },
    "properties": {
    "Asset ID":"HY4010125",
    "Address":"70 CADILLAC AVE",
    "District":"D3 - North York"
    }
  },
  {
    "type": "Feature",
    "geometry": {
       "type": "Point",
       "coordinates":  [ -79.58550,43.65671 ]
    },
    "properties": {
    "Asset ID":"HY2000086",
    "Address":"71m East 156 CENTENNIAL PARK RD",
    "District":"D2 - Etobicoke - York"
    }
  },
  {
    "type": "Feature",
    "geometry": {
       "type": "Point",
       "coordinates":  [ -79.49973,43.61114 ]
    },
    "properties": {
    "Asset ID":"HY2008691",
    "Address":"70 VANEVERY ST",
    "District":"D2 - Etobicoke - York"
    }
  },
  {
    "type": "Feature",
    "geometry": {
       "type": "Point",
       "coordinates":  [ -79.62063,43.73054 ]
    },
    "properties": {
    "Asset ID":"HY2002524",
    "Address":"8 TOPBANK DR",
    "District":"D2 - Etobicoke - York"
    }
  },
  {
    "type": "Feature",
    "geometry": {
       "type": "Point",
       "coordinates":  [ -79.42703,43.63843 ]
    },
    "properties": {
    "Asset ID":"HY1356024",
    "Address":"259 DUFFERIN ST",
    "District":"D1 - Toronto-East York"
    }
  },
  {
    "type": "Feature",
    "geometry": {
       "type": "Point",
       "coordinates":  [ -79.51845,43.74006 ]
    },
    "properties": {
    "Asset ID":"HY4030045",
    "Address":"60 CLAIR RD",
    "District":"D2 - Etobicoke - York"
    }
  },
  {
    "type": "Feature",
    "geometry": {
       "type": "Point",
       "coordinates":  [ -79.13665,43.79523 ]
    },
    "properties": {
    "Asset ID":"HY119369",
    "Address":"110 KIRKDENE DR",
    "District":"D4 - Scarborough"
    }
  },
  {
    "type": "Feature",
    "geometry": {
       "type": "Point",
       "coordinates":  [ -79.29852,43.75742 ]
    },
    "properties": {
    "Asset ID":"HY129956",
    "Address":"261 ELLINGTON DR",
    "District":"D4 - Scarborough"
    }
  },
  {
    "type": "Feature",
    "geometry": {
       "type": "Point",
       "coordinates":  [ -79.33836,43.66151 ]
    },
    "properties": {
    "Asset ID":"HY1361044",
    "Address":"1030 QUEEN ST E",
    "District":"D1 - Toronto-East York"
    }
  },
  {
    "type": "Feature",
    "geometry": {
       "type": "Point",
       "coordinates":  [ -79.42106,43.64674 ]
    },
    "properties": {
    "Asset ID":"HY1363136",
    "Address":"82 ARGYLE ST",
    "District":"D1 - Toronto-East York"
    }
  },
  {
    "type": "Feature",
    "geometry": {
       "type": "Point",
       "coordinates":  [ -79.23660,43.76870 ]
    },
    "properties": {
    "Asset ID":"HY131316",
    "Address":"36 AMBERJACK BLVD",
    "District":"D4 - Scarborough"
    }
  },
  {
    "type": "Feature",
    "geometry": {
       "type": "Point",
       "coordinates":  [ -79.33738,43.66545 ]
    },
    "properties": {
    "Asset ID":"HY1363741",
    "Address":"130 BROOKLYN AVE",
    "District":"D1 - Toronto-East York"
    }
  },
  {
    "type": "Feature",
    "geometry": {
       "type": "Point",
       "coordinates":  [ -79.42673,43.67874 ]
    },
    "properties": {
    "Asset ID":"HY1356683",
    "Address":"23m East 84 ILFORD RD",
    "District":"D1 - Toronto-East York"
    }
  },
  {
    "type": "Feature",
    "geometry": {
       "type": "Point",
       "coordinates":  [ -79.40875,43.66900 ]
    },
    "properties": {
    "Asset ID":"HY1361997",
    "Address":"388 BRUNSWICK AVE",
    "District":"D1 - Toronto-East York"
    }
  },
  {
    "type": "Feature",
    "geometry": {
       "type": "Point",
       "coordinates":  [ -79.49686,43.68840 ]
    },
    "properties": {
    "Asset ID":"HY3426",
    "Address":"38 SUNNYBRAE CRES",
    "District":"D2 - Etobicoke - York"
    }
  },
  {
    "type": "Feature",
    "geometry": {
       "type": "Point",
       "coordinates":  [ -79.55672,43.63730 ]
    },
    "properties": {
    "Asset ID":"HY2005557",
    "Address":"58m East 300 THE EAST MALL",
    "District":"D2 - Etobicoke - York"
    }
  },
  {
    "type": "Feature",
    "geometry": {
       "type": "Point",
       "coordinates":  [ -79.45509,43.69818 ]
    },
    "properties": {
    "Asset ID":"HY1707",
    "Address":"62 SCHELL AVE",
    "District":"D3 - North York"
    }
  },
  {
    "type": "Feature",
    "geometry": {
       "type": "Point",
       "coordinates":  [ -79.43800,43.69222 ]
    },
    "properties": {
    "Asset ID":"HY589",
    "Address":"24 ALAMEDA AVE",
    "District":"D3 - North York"
    }
  },
  {
    "type": "Feature",
    "geometry": {
       "type": "Point",
       "coordinates":  [ -79.45277,43.69973 ]
    },
    "properties": {
    "Asset ID":"HY1025",
    "Address":"1136 ROSELAWN AVE",
    "District":"D3 - North York"
    }
  },
  {
    "type": "Feature",
    "geometry": {
       "type": "Point",
       "coordinates":  [ -79.54792,43.60364 ]
    },
    "properties": {
    "Asset ID":"HY2009973",
    "Address":"18 FINSBURY CRES",
    "District":"D2 - Etobicoke - York"
    }
  },
  {
    "type": "Feature",
    "geometry": {
       "type": "Point",
       "coordinates":  [ -79.46222,43.71914 ]
    },
    "properties": {
    "Asset ID":"HY4019731",
    "Address":"66 ORFUS RD",
    "District":"D3 - North York"
    }
  },
  {
    "type": "Feature",
    "geometry": {
       "type": "Point",
       "coordinates":  [ -79.61477,43.72323 ]
    },
    "properties": {
    "Asset ID":"HY2001800",
    "Address":"35 THOROUGHBRED CRES",
    "District":"D2 - Etobicoke - York"
    }
  },
  {
    "type": "Feature",
    "geometry": {
       "type": "Point",
       "coordinates":  [ -79.53192,43.61464 ]
    },
    "properties": {
    "Asset ID":"HY2010362",
    "Address":"425 EVANS AVE",
    "District":"D2 - Etobicoke - York"
    }
  },
  {
    "type": "Feature",
    "geometry": {
       "type": "Point",
       "coordinates":  [ -79.36262,43.71684 ]
    },
    "properties": {
    "Asset ID":"HY3003745",
    "Address":"641 BROADWAY AVE",
    "District":"D3 - North York"
    }
  },
  {
    "type": "Feature",
    "geometry": {
       "type": "Point",
       "coordinates":  [ -79.25872,43.70383 ]
    },
    "properties": {
    "Asset ID":"HY131862",
    "Address":"4 MALTA ST",
    "District":"D4 - Scarborough"
    }
  },
  {
    "type": "Feature",
    "geometry": {
       "type": "Point",
       "coordinates":  [ -79.45899,43.75883 ]
    },
    "properties": {
    "Asset ID":"HY4029187",
    "Address":"159 COMBE AVE",
    "District":"D3 - North York"
    }
  },
  {
    "type": "Feature",
    "geometry": {
       "type": "Point",
       "coordinates":  [ -79.28241,43.80022 ]
    },
    "properties": {
    "Asset ID":"HY143168",
    "Address":"32 BOARHILL DR",
    "District":"D4 - Scarborough"
    }
  },
  {
    "type": "Feature",
    "geometry": {
       "type": "Point",
       "coordinates":  [ -79.62563,43.73132 ]
    },
    "properties": {
    "Asset ID":"HY2002516",
    "Address":"125 UPPER HUMBER DR",
    "District":"D2 - Etobicoke - York"
    }
  },
  {
    "type": "Feature",
    "geometry": {
       "type": "Point",
       "coordinates":  [ -79.55483,43.62188 ]
    },
    "properties": {
    "Asset ID":"HY2010732",
    "Address":"98 INDEX RD",
    "District":"D2 - Etobicoke - York"
    }
  },
  {
    "type": "Feature",
    "geometry": {
       "type": "Point",
       "coordinates":  [ -79.44025,43.75467 ]
    },
    "properties": {
    "Asset ID":"HY4040762",
    "Address":"635 SHEPPARD AVE W ON EAST SIDE OF HAMMELL ST 1ST SOUTH OF SHEPPARD AVE W",
    "District":"D3 - North York"
    }
  },
  {
    "type": "Feature",
    "geometry": {
       "type": "Point",
       "coordinates":  [ -79.53287,43.62406 ]
    },
    "properties": {
    "Asset ID":"HY2010524",
    "Address":"20 NORTH QUEEN ST ACROSS EAST OF CPR",
    "District":"D2 - Etobicoke - York"
    }
  },
  {
    "type": "Feature",
    "geometry": {
       "type": "Point",
       "coordinates":  [ -79.29778,43.81327 ]
    },
    "properties": {
    "Asset ID":"HY16783",
    "Address":"4th EAST OF KENNEDY RD  ON NORTH SIDE",
    "District":"D4 - Scarborough"
    }
  },
  {
    "type": "Feature",
    "geometry": {
       "type": "Point",
       "coordinates":  [ -79.34388,43.78214 ]
    },
    "properties": {
    "Asset ID":"HY4033573",
    "Address":"28 LISBURN CRES",
    "District":"D3 - North York"
    }
  },
  {
    "type": "Feature",
    "geometry": {
       "type": "Point",
       "coordinates":  [ -79.55369,43.64093 ]
    },
    "properties": {
    "Asset ID":"HY2005568",
    "Address":"15 CRONIN DR",
    "District":"D2 - Etobicoke - York"
    }
  },
  {
    "type": "Feature",
    "geometry": {
       "type": "Point",
       "coordinates":  [ -79.27247,43.75263 ]
    },
    "properties": {
    "Asset ID":"HY131267",
    "Address":"18 NANTUCKET BLVD",
    "District":"D4 - Scarborough"
    }
  },
  {
    "type": "Feature",
    "geometry": {
       "type": "Point",
       "coordinates":  [ -79.28251,43.81754 ]
    },
    "properties": {
    "Asset ID":"HY141786",
    "Address":"BRIMLEY MCNICOLL N2  205m NORTH OF MCNICOLL AVE",
    "District":"D4 - Scarborough"
    }
  },
  {
    "type": "Feature",
    "geometry": {
       "type": "Point",
       "coordinates":  [ -79.13591,43.79591 ]
    },
    "properties": {
    "Asset ID":"HY119363",
    "Address":"128 BEAVERBROOK CRT",
    "District":"D4 - Scarborough"
    }
  },
  {
    "type": "Feature",
    "geometry": {
       "type": "Point",
       "coordinates":  [ -79.43910,43.65538 ]
    },
    "properties": {
    "Asset ID":"HY1358938",
    "Address":"206 MARGUERETTA ST",
    "District":"D1 - Toronto-East York"
    }
  },
  {
    "type": "Feature",
    "geometry": {
       "type": "Point",
       "coordinates":  [ -79.28139,43.72420 ]
    },
    "properties": {
    "Asset ID":"HY141920",
    "Address":"76 SHERRY RD ACROSS  70M S W OF",
    "District":"D4 - Scarborough"
    }
  },
  {
    "type": "Feature",
    "geometry": {
       "type": "Point",
       "coordinates":  [ -79.38657,43.77900 ]
    },
    "properties": {
    "Asset ID":"HY4018309",
    "Address":"52 SUMMER HEIGHTS DR ON BURBANK DR SOUTH EAST CORNER",
    "District":"D3 - North York"
    }
  },
  {
    "type": "Feature",
    "geometry": {
       "type": "Point",
       "coordinates":  [ -79.47127,43.64664 ]
    },
    "properties": {
    "Asset ID":"HY1362119",
    "Address":"18 ELLIS PARK RD, ACROSS FROM 29 ELLIS PK RD",
    "District":"D2 - Etobicoke - York"
    }
  },
  {
    "type": "Feature",
    "geometry": {
       "type": "Point",
       "coordinates":  [ -79.26380,43.69687 ]
    },
    "properties": {
    "Asset ID":"HY129148",
    "Address":"133 BIRCHMOUNT RD  40M EAST OF",
    "District":"D4 - Scarborough"
    }
  },
  {
    "type": "Feature",
    "geometry": {
       "type": "Point",
       "coordinates":  [ -79.43658,43.74170 ]
    },
    "properties": {
    "Asset ID":"HY4042931",
    "Address":"5 ROSSEAU RD",
    "District":"D3 - North York"
    }
  },
  {
    "type": "Feature",
    "geometry": {
       "type": "Point",
       "coordinates":  [ -79.29560,43.72054 ]
    },
    "properties": {
    "Asset ID":"HY141209",
    "Address":"750 PHARMACY AVE",
    "District":"D4 - Scarborough"
    }
  },
  {
    "type": "Feature",
    "geometry": {
       "type": "Point",
       "coordinates":  [ -79.46803,43.66395 ]
    },
    "properties": {
    "Asset ID":"HY1355348",
    "Address":"358 PACIFIC AVE",
    "District":"D2 - Etobicoke - York"
    }
  },
  {
    "type": "Feature",
    "geometry": {
       "type": "Point",
       "coordinates":  [ -79.31531,43.81087 ]
    },
    "properties": {
    "Asset ID":"HY132998",
    "Address":"64 HOOD CRES",
    "District":"D4 - Scarborough"
    }
  },
  {
    "type": "Feature",
    "geometry": {
       "type": "Point",
       "coordinates":  [ -79.36431,43.77498 ]
    },
    "properties": {
    "Asset ID":"HY4026373",
    "Address":"31m North 1 MAROWYNE DR",
    "District":"D3 - North York"
    }
  },
  {
    "type": "Feature",
    "geometry": {
       "type": "Point",
       "coordinates":  [ -79.49832,43.71281 ]
    },
    "properties": {
    "Asset ID":"HY4029188",
    "Address":"7 WELDON CRT",
    "District":"D2 - Etobicoke - York"
    }
  },
  {
    "type": "Feature",
    "geometry": {
       "type": "Point",
       "coordinates":  [ -79.15412,43.78685 ]
    },
    "properties": {
    "Asset ID":"HY121636",
    "Address":"NW CEDARVIEW   LAWSON  221 LAWSON RD ACROSS 7m WEST OF CEDARVIEW DR",
    "District":"D4 - Scarborough"
    }
  },
  {
    "type": "Feature",
    "geometry": {
       "type": "Point",
       "coordinates":  [ -79.33066,43.70374 ]
    },
    "properties": {
    "Asset ID":"HY3004744",
    "Address":"4 STINSON CRCL",
    "District":"D1 - Toronto-East York"
    }
  },
  {
    "type": "Feature",
    "geometry": {
       "type": "Point",
       "coordinates":  [ -79.48574,43.61953 ]
    },
    "properties": {
    "Asset ID":"HY2009927",
    "Address":"2281 LAKE SHORE BLVD W",
    "District":"D2 - Etobicoke - York"
    }
  },
  {
    "type": "Feature",
    "geometry": {
       "type": "Point",
       "coordinates":  [ -79.51907,43.63759 ]
    },
    "properties": {
    "Asset ID":"HY2006597",
    "Address":"14 CARDIGAN RD",
    "District":"D2 - Etobicoke - York"
    }
  },
  {
    "type": "Feature",
    "geometry": {
       "type": "Point",
       "coordinates":  [ -79.14454,43.80115 ]
    },
    "properties": {
    "Asset ID":"HY143646",
    "Address":"16 OAK KNOLLS CRES",
    "District":"D4 - Scarborough"
    }
  },
  {
    "type": "Feature",
    "geometry": {
       "type": "Point",
       "coordinates":  [ -79.21943,43.82526 ]
    },
    "properties": {
    "Asset ID":"HY27962",
    "Address":"55 POINT ROUGE TRL",
    "District":"D4 - Scarborough"
    }
  },
  {
    "type": "Feature",
    "geometry": {
       "type": "Point",
       "coordinates":  [ -79.59169,43.66176 ]
    },
    "properties": {
    "Asset ID":"HY2000105",
    "Address":"5405 EGLINTON AVE W",
    "District":"D2 - Etobicoke - York"
    }
  },
  {
    "type": "Feature",
    "geometry": {
       "type": "Point",
       "coordinates":  [ -79.50267,43.67667 ]
    },
    "properties": {
    "Asset ID":"HY1257",
    "Address":"26 ROSE VALLEY CRES",
    "District":"D2 - Etobicoke - York"
    }
  },
  {
    "type": "Feature",
    "geometry": {
       "type": "Point",
       "coordinates":  [ -79.38039,43.76855 ]
    },
    "properties": {
    "Asset ID":"HY4037999",
    "Address":"627 SHEPPARD AVE E",
    "District":"D3 - North York"
    }
  },
  {
    "type": "Feature",
    "geometry": {
       "type": "Point",
       "coordinates":  [ -79.51353,43.65261 ]
    },
    "properties": {
    "Asset ID":"HY2006238",
    "Address":"1031 ROYAL YORK RD",
    "District":"D2 - Etobicoke - York"
    }
  },
  {
    "type": "Feature",
    "geometry": {
       "type": "Point",
       "coordinates":  [ -79.54635,43.74378 ]
    },
    "properties": {
    "Asset ID":"HY4035822",
    "Address":"44 STORER DR",
    "District":"D2 - Etobicoke - York"
    }
  },
  {
    "type": "Feature",
    "geometry": {
       "type": "Point",
       "coordinates":  [ -79.40976,43.79049 ]
    },
    "properties": {
    "Asset ID":"HY4042299",
    "Address":"98 WEDGEWOOD DR",
    "District":"D3 - North York"
    }
  },
  {
    "type": "Feature",
    "geometry": {
       "type": "Point",
       "coordinates":  [ -79.40801,43.79088 ]
    },
    "properties": {
    "Asset ID":"HY4042311",
    "Address":"126 WEDGEWOOD DR",
    "District":"D3 - North York"
    }
  },
  {
    "type": "Feature",
    "geometry": {
       "type": "Point",
       "coordinates":  [ -79.53116,43.63136 ]
    },
    "properties": {
    "Asset ID":"HY2010797",
    "Address":"SW CORNER OF KIPLING AVE AND NORSEMAN ST 1ST SOUTH OF NORSEMAN ST",
    "District":"D2 - Etobicoke - York"
    }
  },
  {
    "type": "Feature",
    "geometry": {
       "type": "Point",
       "coordinates":  [ -79.41738,43.78902 ]
    },
    "properties": {
    "Asset ID":"HY4041736",
    "Address":"5997 YONGE ST ON SOUTH SIDE OF WEDGEWOOD DR",
    "District":"D3 - North York"
    }
  },
  {
    "type": "Feature",
    "geometry": {
       "type": "Point",
       "coordinates":  [ -79.40718,43.63822 ]
    },
    "properties": {
    "Asset ID":"HY30430",
    "Address":"250 FORT YORK BLVD ON GARRISON RD",
    "District":"D1 - Toronto-East York"
    }
  },
  {
    "type": "Feature",
    "geometry": {
       "type": "Point",
       "coordinates":  [ -79.53160,43.63587 ]
    },
    "properties": {
    "Asset ID":"HY2005763",
    "Address":"382 OLIVEWOOD RD",
    "District":"D2 - Etobicoke - York"
    }
  },
  {
    "type": "Feature",
    "geometry": {
       "type": "Point",
       "coordinates":  [ -79.19223,43.78864 ]
    },
    "properties": {
    "Asset ID":"HY133315",
    "Address":"MILITARY RD UFT PARKING LOT 3RD NORTH OF ELLESMERE RD ON EAST SIDE OF THE ROAD",
    "District":"D4 - Scarborough"
    }
  },
  {
    "type": "Feature",
    "geometry": {
       "type": "Point",
       "coordinates":  [ -79.41108,43.79020 ]
    },
    "properties": {
    "Asset ID":"HY4042157",
    "Address":"78 WEDGEWOOD DR",
    "District":"D3 - North York"
    }
  },
  {
    "type": "Feature",
    "geometry": {
       "type": "Point",
       "coordinates":  [ -79.41250,43.78989 ]
    },
    "properties": {
    "Asset ID":"HY4042149",
    "Address":"54 WEDGEWOOD DR",
    "District":"D3 - North York"
    }
  },
  {
    "type": "Feature",
    "geometry": {
       "type": "Point",
       "coordinates":  [ -79.40646,43.79123 ]
    },
    "properties": {
    "Asset ID":"HY4042314",
    "Address":"28 PHEASANT RD ON NORTH WEST SIDE OF WEDGEWOOD DR",
    "District":"D3 - North York"
    }
  },
  {
    "type": "Feature",
    "geometry": {
       "type": "Point",
       "coordinates":  [ -79.54187,43.60266 ]
    },
    "properties": {
    "Asset ID":"HY2010115",
    "Address":"151 HALLMARK AVE",
    "District":"D2 - Etobicoke - York"
    }
  },
  {
    "type": "Feature",
    "geometry": {
       "type": "Point",
       "coordinates":  [ -79.44920,43.72407 ]
    },
    "properties": {
    "Asset ID":"HY4020961",
    "Address":"26 ALCESTER CRT",
    "District":"D3 - North York"
    }
  },
  {
    "type": "Feature",
    "geometry": {
       "type": "Point",
       "coordinates":  [ -79.27252,43.72700 ]
    },
    "properties": {
    "Asset ID":"HY141506",
    "Address":"80 CHELWOOD RD",
    "District":"D4 - Scarborough"
    }
  },
  {
    "type": "Feature",
    "geometry": {
       "type": "Point",
       "coordinates":  [ -79.45456,43.70548 ]
    },
    "properties": {
    "Asset ID":"HY4042368",
    "Address":"30 TYCOS DR",
    "District":"D3 - North York"
    }
  },
  {
    "type": "Feature",
    "geometry": {
       "type": "Point",
       "coordinates":  [ -79.52987,43.63182 ]
    },
    "properties": {
    "Asset ID":"HY2005719",
    "Address":"236 NORSEMAN ST 1ST EAST OF KIPLING AVE",
    "District":"D2 - Etobicoke - York"
    }
  },
  {
    "type": "Feature",
    "geometry": {
       "type": "Point",
       "coordinates":  [ -79.47875,43.69510 ]
    },
    "properties": {
    "Asset ID":"HY3551",
    "Address":"34M SOUTH 2A KING GEORGES DR",
    "District":"D2 - Etobicoke - York"
    }
  },
  {
    "type": "Feature",
    "geometry": {
       "type": "Point",
       "coordinates":  [ -79.48508,43.66305 ]
    },
    "properties": {
    "Asset ID":"HY1706",
    "Address":"360 ST JOHNS RD",
    "District":"D2 - Etobicoke - York"
    }
  },
  {
    "type": "Feature",
    "geometry": {
       "type": "Point",
       "coordinates":  [ -79.38090,43.66162 ]
    },
    "properties": {
    "Asset ID":"HY1355021",
    "Address":"30 CARLTON ST",
    "District":"D1 - Toronto-East York"
    }
  },
  {
    "type": "Feature",
    "geometry": {
       "type": "Point",
       "coordinates":  [ -79.27981,43.79641 ]
    },
    "properties": {
    "Asset ID":"HY134511",
    "Address":"73 STUBBSWOOD SQ",
    "District":"D4 - Scarborough"
    }
  },
  {
    "type": "Feature",
    "geometry": {
       "type": "Point",
       "coordinates":  [ -79.43936,43.70161 ]
    },
    "properties": {
    "Asset ID":"HY1362100",
    "Address":"66 FAIRLEIGH CRES",
    "District":"D1 - Toronto-East York"
    }
  },
  {
    "type": "Feature",
    "geometry": {
       "type": "Point",
       "coordinates":  [ -79.59789,43.70454 ]
    },
    "properties": {
    "Asset ID":"HY2003148",
    "Address":"355 361 ATTWELL DR",
    "District":"D2 - Etobicoke - York"
    }
  },
  {
    "type": "Feature",
    "geometry": {
       "type": "Point",
       "coordinates":  [ -79.60069,43.69316 ]
    },
    "properties": {
    "Asset ID":"HY2002728",
    "Address":"22 WORCESTER RD_3RD WEST OF CARLINGVIEW DR ON NORTH SIDE OF THE ROAD",
    "District":"D2 - Etobicoke - York"
    }
  },
  {
    "type": "Feature",
    "geometry": {
       "type": "Point",
       "coordinates":  [ -79.45968,43.66117 ]
    },
    "properties": {
    "Asset ID":"HY1361954",
    "Address":"94 KENNETH AVE",
    "District":"D1 - Toronto-East York"
    }
  },
  {
    "type": "Feature",
    "geometry": {
       "type": "Point",
       "coordinates":  [ -79.49338,43.68101 ]
    },
    "properties": {
    "Asset ID":"HY889",
    "Address":"24 GRAY AVE",
    "District":"D2 - Etobicoke - York"
    }
  },
  {
    "type": "Feature",
    "geometry": {
       "type": "Point",
       "coordinates":  [ -79.33129,43.81338 ]
    },
    "properties": {
    "Asset ID":"HY128262",
    "Address":"64 ELLENHALL SQ",
    "District":"D4 - Scarborough"
    }
  },
  {
    "type": "Feature",
    "geometry": {
       "type": "Point",
       "coordinates":  [ -79.48459,43.75638 ]
    },
    "properties": {
    "Asset ID":"HY4011879",
    "Address":"40 ST REGIS CRES N",
    "District":"D3 - North York"
    }
  },
  {
    "type": "Feature",
    "geometry": {
       "type": "Point",
       "coordinates":  [ -79.54295,43.60243 ]
    },
    "properties": {
    "Asset ID":"HY2010133",
    "Address":"149 SHELDON AVE",
    "District":"D2 - Etobicoke - York"
    }
  },
  {
    "type": "Feature",
    "geometry": {
       "type": "Point",
       "coordinates":  [ -79.56744,43.65762 ]
    },
    "properties": {
    "Asset ID":"HY2000966",
    "Address":"615 THE EAST MALL",
    "District":"D2 - Etobicoke - York"
    }
  },
  {
    "type": "Feature",
    "geometry": {
       "type": "Point",
       "coordinates":  [ -79.44803,43.65977 ]
    },
    "properties": {
    "Asset ID":"HY1362787",
    "Address":"132 PATON RD",
    "District":"D1 - Toronto-East York"
    }
  },
  {
    "type": "Feature",
    "geometry": {
       "type": "Point",
       "coordinates":  [ -79.43669,43.65600 ]
    },
    "properties": {
    "Asset ID":"HY10460",
    "Address":"1 ARCHER ST",
    "District":"D1 - Toronto-East York"
    }
  },
  {
    "type": "Feature",
    "geometry": {
       "type": "Point",
       "coordinates":  [ -79.42294,43.70452 ]
    },
    "properties": {
    "Asset ID":"HY1361937",
    "Address":"CHAPLIN CRES 2ND SOUTH OF ROSELAWN AVE",
    "District":"D3 - North York"
    }
  },
  {
    "type": "Feature",
    "geometry": {
       "type": "Point",
       "coordinates":  [ -79.30591,43.70067 ]
    },
    "properties": {
    "Asset ID":"HY3004208",
    "Address":"8 FERRIS RD",
    "District":"D1 - Toronto-East York"
    }
  },
  {
    "type": "Feature",
    "geometry": {
       "type": "Point",
       "coordinates":  [ -79.29400,43.76959 ]
    },
    "properties": {
    "Asset ID":"HY142638",
    "Address":"71 RIDGETOP RD",
    "District":"D4 - Scarborough"
    }
  },
  {
    "type": "Feature",
    "geometry": {
       "type": "Point",
       "coordinates":  [ -79.44887,43.65124 ]
    },
    "properties": {
    "Asset ID":"HY1359348",
    "Address":"64 LYND AVE",
    "District":"D1 - Toronto-East York"
    }
  },
  {
    "type": "Feature",
    "geometry": {
       "type": "Point",
       "coordinates":  [ -79.42524,43.66134 ]
    },
    "properties": {
    "Asset ID":"HY1360918",
    "Address":"705 OSSINGTON AVE",
    "District":"D1 - Toronto-East York"
    }
  },
  {
    "type": "Feature",
    "geometry": {
       "type": "Point",
       "coordinates":  [ -79.45392,43.78878 ]
    },
    "properties": {
    "Asset ID":"HY4001040",
    "Address":"75 FISHERVILLE RD",
    "District":"D3 - North York"
    }
  },
  {
    "type": "Feature",
    "geometry": {
       "type": "Point",
       "coordinates":  [ -79.51134,43.67866 ]
    },
    "properties": {
    "Asset ID":"HY2000875",
    "Address":"17 CLAY CRT",
    "District":"D2 - Etobicoke - York"
    }
  },
  {
    "type": "Feature",
    "geometry": {
       "type": "Point",
       "coordinates":  [ -79.55624,43.66967 ]
    },
    "properties": {
    "Asset ID":"HY2004490",
    "Address":"8 HEDGES BLVD",
    "District":"D2 - Etobicoke - York"
    }
  },
  {
    "type": "Feature",
    "geometry": {
       "type": "Point",
       "coordinates":  [ -79.32270,43.79524 ]
    },
    "properties": {
    "Asset ID":"HY136619",
    "Address":"FINCH PHARMACY E3  275m EAST OF PHARMACY AVE",
    "District":"D4 - Scarborough"
    }
  },
  {
    "type": "Feature",
    "geometry": {
       "type": "Point",
       "coordinates":  [ -79.50807,43.62102 ]
    },
    "properties": {
    "Asset ID":"HY2010934",
    "Address":"48M NORTH 819A OXFORD ST",
    "District":"D2 - Etobicoke - York"
    }
  },
  {
    "type": "Feature",
    "geometry": {
       "type": "Point",
       "coordinates":  [ -79.23454,43.76305 ]
    },
    "properties": {
    "Asset ID":"HY135289",
    "Address":"87 SEDGEMOUNT DR ACROSS",
    "District":"D4 - Scarborough"
    }
  },
  {
    "type": "Feature",
    "geometry": {
       "type": "Point",
       "coordinates":  [ -79.49916,43.74220 ]
    },
    "properties": {
    "Asset ID":"HY16581",
    "Address":"84 CLUBHOUSE CRT",
    "District":"D3 - North York"
    }
  },
  {
    "type": "Feature",
    "geometry": {
       "type": "Point",
       "coordinates":  [ -79.35148,43.65423 ]
    },
    "properties": {
    "Asset ID":"HY1000256",
    "Address":"96m East 521 FRONT ST E",
    "District":"D1 - Toronto-East York"
    }
  },
  {
    "type": "Feature",
    "geometry": {
       "type": "Point",
       "coordinates":  [ -79.52365,43.76139 ]
    },
    "properties": {
    "Asset ID":"HY4002514",
    "Address":"33 HULLMAR DR",
    "District":"D3 - North York"
    }
  },
  {
    "type": "Feature",
    "geometry": {
       "type": "Point",
       "coordinates":  [ -79.28996,43.70525 ]
    },
    "properties": {
    "Asset ID":"HY130167",
    "Address":"85 BEXHILL AVE",
    "District":"D4 - Scarborough"
    }
  },
  {
    "type": "Feature",
    "geometry": {
       "type": "Point",
       "coordinates":  [ -79.32028,43.80173 ]
    },
    "properties": {
    "Asset ID":"HY137563",
    "Address":"45 HILDENBORO SQ",
    "District":"D4 - Scarborough"
    }
  },
  {
    "type": "Feature",
    "geometry": {
       "type": "Point",
       "coordinates":  [ -79.24257,43.77105 ]
    },
    "properties": {
    "Asset ID":"HY130929",
    "Address":"42 MONMOUTH CRT",
    "District":"D4 - Scarborough"
    }
  },
  {
    "type": "Feature",
    "geometry": {
       "type": "Point",
       "coordinates":  [ -79.44388,43.70202 ]
    },
    "properties": {
    "Asset ID":"HY1001",
    "Address":"8 DANESBURY AVE",
    "District":"D3 - North York"
    }
  },
  {
    "type": "Feature",
    "geometry": {
       "type": "Point",
       "coordinates":  [ -79.44674,43.64586 ]
    },
    "properties": {
    "Asset ID":"HY1360303",
    "Address":"148 WRIGHT AVE",
    "District":"D1 - Toronto-East York"
    }
  },
  {
    "type": "Feature",
    "geometry": {
       "type": "Point",
       "coordinates":  [ -79.56904,43.64336 ]
    },
    "properties": {
    "Asset ID":"HY2005300",
    "Address":"4 RATHGAR AVE",
    "District":"D2 - Etobicoke - York"
    }
  },
  {
    "type": "Feature",
    "geometry": {
       "type": "Point",
       "coordinates":  [ -79.43418,43.64259 ]
    },
    "properties": {
    "Asset ID":"HY1362329",
    "Address":"30 MAPLE GROVE AVE",
    "District":"D1 - Toronto-East York"
    }
  },
  {
    "type": "Feature",
    "geometry": {
       "type": "Point",
       "coordinates":  [ -79.50865,43.74299 ]
    },
    "properties": {
    "Asset ID":"HY4031527",
    "Address":"96 SPENVALLEY DR",
    "District":"D3 - North York"
    }
  },
  {
    "type": "Feature",
    "geometry": {
       "type": "Point",
       "coordinates":  [ -79.40053,43.75077 ]
    },
    "properties": {
    "Asset ID":"HY4006820",
    "Address":"23 25 TOURNAMENT DR",
    "District":"D3 - North York"
    }
  },
  {
    "type": "Feature",
    "geometry": {
       "type": "Point",
       "coordinates":  [ -79.47056,43.75556 ]
    },
    "properties": {
    "Asset ID":"HY4013361",
    "Address":"102m West 3 WHITEHORSE RD",
    "District":"D3 - North York"
    }
  },
  {
    "type": "Feature",
    "geometry": {
       "type": "Point",
       "coordinates":  [ -79.26963,43.69303 ]
    },
    "properties": {
    "Asset ID":"HY132651",
    "Address":"97 KALMAR AVE",
    "District":"D4 - Scarborough"
    }
  },
  {
    "type": "Feature",
    "geometry": {
       "type": "Point",
       "coordinates":  [ -79.48730,43.71764 ]
    },
    "properties": {
    "Asset ID":"HY4023741",
    "Address":"68 GROVEDALE AVE",
    "District":"D2 - Etobicoke - York"
    }
  },
  {
    "type": "Feature",
    "geometry": {
       "type": "Point",
       "coordinates":  [ -79.44079,43.72069 ]
    },
    "properties": {
    "Asset ID":"HY4022683",
    "Address":"31 VARNA DR",
    "District":"D3 - North York"
    }
  },
  {
    "type": "Feature",
    "geometry": {
       "type": "Point",
       "coordinates":  [ -79.45087,43.66390 ]
    },
    "properties": {
    "Asset ID":"HY1361552",
    "Address":"25m North 51 ANTLER ST",
    "District":"D1 - Toronto-East York"
    }
  },
  {
    "type": "Feature",
    "geometry": {
       "type": "Point",
       "coordinates":  [ -79.49733,43.68990 ]
    },
    "properties": {
    "Asset ID":"HY3406",
    "Address":"1325 WESTON RD",
    "District":"D2 - Etobicoke - York"
    }
  },
  {
    "type": "Feature",
    "geometry": {
       "type": "Point",
       "coordinates":  [ -79.34025,43.66167 ]
    },
    "properties": {
    "Asset ID":"HY1360243",
    "Address":"181 CARLAW AVE",
    "District":"D1 - Toronto-East York"
    }
  },
  {
    "type": "Feature",
    "geometry": {
       "type": "Point",
       "coordinates":  [ -79.46240,43.71663 ]
    },
    "properties": {
    "Asset ID":"HY4020234",
    "Address":"65 DUFFLAW RD",
    "District":"D3 - North York"
    }
  },
  {
    "type": "Feature",
    "geometry": {
       "type": "Point",
       "coordinates":  [ -79.46115,43.71938 ]
    },
    "properties": {
    "Asset ID":"HY4019773",
    "Address":"52 ORFUS RD",
    "District":"D3 - North York"
    }
  },
  {
    "type": "Feature",
    "geometry": {
       "type": "Point",
       "coordinates":  [ -79.59243,43.68023 ]
    },
    "properties": {
    "Asset ID":"HY2003577",
    "Address":"163 CARLINGVIEW DR, 1st S OF METEOR DR",
    "District":"D2 - Etobicoke - York"
    }
  },
  {
    "type": "Feature",
    "geometry": {
       "type": "Point",
       "coordinates":  [ -79.46544,43.67829 ]
    },
    "properties": {
    "Asset ID":"HY20076",
    "Address":"83 TURNBERRY AVE ACROSS",
    "District":"D2 - Etobicoke - York"
    }
  },
  {
    "type": "Feature",
    "geometry": {
       "type": "Point",
       "coordinates":  [ -79.53241,43.59093 ]
    },
    "properties": {
    "Asset ID":"HY2008928",
    "Address":"29 LONG BRANCH AVE",
    "District":"D2 - Etobicoke - York"
    }
  },
  {
    "type": "Feature",
    "geometry": {
       "type": "Point",
       "coordinates":  [ -79.27031,43.81376 ]
    },
    "properties": {
    "Asset ID":"HY140611",
    "Address":"MCCOWAN MCNICOLL S4  42m SOUTH OF BRIDLEY DR",
    "District":"D4 - Scarborough"
    }
  },
  {
    "type": "Feature",
    "geometry": {
       "type": "Point",
       "coordinates":  [ -79.58162,43.66048 ]
    },
    "properties": {
    "Asset ID":"HY2000232",
    "Address":"118 ERINGATE DR",
    "District":"D2 - Etobicoke - York"
    }
  },
  {
    "type": "Feature",
    "geometry": {
       "type": "Point",
       "coordinates":  [ -79.39438,43.76455 ]
    },
    "properties": {
    "Asset ID":"HY4009781",
    "Address":"50M SOUTH OF SHEPPARD AVE EAST",
    "District":"D3 - North York"
    }
  },
  {
    "type": "Feature",
    "geometry": {
       "type": "Point",
       "coordinates":  [ -79.50217,43.68837 ]
    },
    "properties": {
    "Asset ID":"HY24",
    "Address":"31m West 24 PINEHILL CRES",
    "District":"D2 - Etobicoke - York"
    }
  },
  {
    "type": "Feature",
    "geometry": {
       "type": "Point",
       "coordinates":  [ -79.38072,43.65946 ]
    },
    "properties": {
    "Asset ID":"HY1355106",
    "Address":"40 GERRARD ST E",
    "District":"D1 - Toronto-East York"
    }
  },
  {
    "type": "Feature",
    "geometry": {
       "type": "Point",
       "coordinates":  [ -79.37975,43.65952 ]
    },
    "properties": {
    "Asset ID":"HY1355102",
    "Address":"OPP 42 GERRARD ST E",
    "District":"D1 - Toronto-East York"
    }
  },
  {
    "type": "Feature",
    "geometry": {
       "type": "Point",
       "coordinates":  [ -79.38174,43.65908 ]
    },
    "properties": {
    "Asset ID":"HY1362984",
    "Address":"3 GERRARD ST E",
    "District":"D1 - Toronto-East York"
    }
  },
  {
    "type": "Feature",
    "geometry": {
       "type": "Point",
       "coordinates":  [ -79.38054,43.65938 ]
    },
    "properties": {
    "Asset ID":"HY31465",
    "Address":"31 GERRARD ST E",
    "District":"D1 - Toronto-East York"
    }
  },
  {
    "type": "Feature",
    "geometry": {
       "type": "Point",
       "coordinates":  [ -79.47474,43.63649 ]
    },
    "properties": {
    "Asset ID":"HY1363102",
    "Address":"1 RIPLEY AVE",
    "District":"D2 - Etobicoke - York"
    }
  },
  {
    "type": "Feature",
    "geometry": {
       "type": "Point",
       "coordinates":  [ -79.15357,43.76483 ]
    },
    "properties": {
    "Asset ID":"HY31449",
    "Address":"51 BEECHGROVE DR",
    "District":"D4 - Scarborough"
    }
  },
  {
    "type": "Feature",
    "geometry": {
       "type": "Point",
       "coordinates":  [ -79.40208,43.79247 ]
    },
    "properties": {
    "Asset ID":"HY4042339",
    "Address":"210 WEDGEWOOD DR",
    "District":"D3 - North York"
    }
  },
  {
    "type": "Feature",
    "geometry": {
       "type": "Point",
       "coordinates":  [ -79.33421,43.75910 ]
    },
    "properties": {
    "Asset ID":"HY4005998",
    "Address":"1200 1202 YORK MILLS RD",
    "District":"D3 - North York"
    }
  },
  {
    "type": "Feature",
    "geometry": {
       "type": "Point",
       "coordinates":  [ -79.39680,43.69985 ]
    },
    "properties": {
    "Asset ID":"HY1354867",
    "Address":"1965 1971 YONGE ST",
    "District":"D1 - Toronto-East York"
    }
  },
  {
    "type": "Feature",
    "geometry": {
       "type": "Point",
       "coordinates":  [ -79.46887,43.72133 ]
    },
    "properties": {
    "Asset ID":"HY31421",
    "Address":"141 CARTWRIGHT AVE",
    "District":"D3 - North York"
    }
  },
  {
    "type": "Feature",
    "geometry": {
       "type": "Point",
       "coordinates":  [ -79.15030,43.76594 ]
    },
    "properties": {
    "Asset ID":"HY31454",
    "Address":"51 BEECHGROVE DR",
    "District":"D4 - Scarborough"
    }
  },
  {
    "type": "Feature",
    "geometry": {
       "type": "Point",
       "coordinates":  [ -79.28710,43.69677 ]
    },
    "properties": {
    "Asset ID":"HY131221",
    "Address":"TEESDALE PLACE 30",
    "District":"D4 - Scarborough"
    }
  },
  {
    "type": "Feature",
    "geometry": {
       "type": "Point",
       "coordinates":  [ -79.40910,43.64986 ]
    },
    "properties": {
    "Asset ID":"HY1362789",
    "Address":"138A EUCLID AVE",
    "District":"D1 - Toronto-East York"
    }
  },
  {
    "type": "Feature",
    "geometry": {
       "type": "Point",
       "coordinates":  [ -79.52191,43.71810 ]
    },
    "properties": {
    "Asset ID":"HY4014404",
    "Address":"1795 WILSON AVE",
    "District":"D2 - Etobicoke - York"
    }
  },
  {
    "type": "Feature",
    "geometry": {
       "type": "Point",
       "coordinates":  [ -79.21107,43.82212 ]
    },
    "properties": {
    "Asset ID":"HY132695",
    "Address":"12 LAMAY CRES",
    "District":"D4 - Scarborough"
    }
  },
  {
    "type": "Feature",
    "geometry": {
       "type": "Point",
       "coordinates":  [ -79.36566,43.75524 ]
    },
    "properties": {
    "Asset ID":"HY4032796",
    "Address":"6 RIDERWOOD DR",
    "District":"D3 - North York"
    }
  },
  {
    "type": "Feature",
    "geometry": {
       "type": "Point",
       "coordinates":  [ -79.51775,43.72192 ]
    },
    "properties": {
    "Asset ID":"HY4010654",
    "Address":"41 HAYMARKET RD",
    "District":"D2 - Etobicoke - York"
    }
  },
  {
    "type": "Feature",
    "geometry": {
       "type": "Point",
       "coordinates":  [ -79.32625,43.69971 ]
    },
    "properties": {
    "Asset ID":"HY3004199",
    "Address":"12 TAYLOR DR",
    "District":"D1 - Toronto-East York"
    }
  },
  {
    "type": "Feature",
    "geometry": {
       "type": "Point",
       "coordinates":  [ -79.50924,43.71494 ]
    },
    "properties": {
    "Asset ID":"HY4037188",
    "Address":"30 GORDON MACKAY RD",
    "District":"D2 - Etobicoke - York"
    }
  },
  {
    "type": "Feature",
    "geometry": {
       "type": "Point",
       "coordinates":  [ -79.52033,43.70292 ]
    },
    "properties": {
    "Asset ID":"HY3145",
    "Address":"7 GEORGE ST, 1st HYDRANT N OF CHURCH ST",
    "District":"D2 - Etobicoke - York"
    }
  },
  {
    "type": "Feature",
    "geometry": {
       "type": "Point",
       "coordinates":  [ -79.14147,43.78491 ]
    },
    "properties": {
    "Asset ID":"HY117024",
    "Address":"48 ELKWOOD DR",
    "District":"D4 - Scarborough"
    }
  },
  {
    "type": "Feature",
    "geometry": {
       "type": "Point",
       "coordinates":  [ -79.55303,43.74893 ]
    },
    "properties": {
    "Asset ID":"HY4032960",
    "Address":"24 LOCKINGTON CRT",
    "District":"D2 - Etobicoke - York"
    }
  },
  {
    "type": "Feature",
    "geometry": {
       "type": "Point",
       "coordinates":  [ -79.45176,43.70500 ]
    },
    "properties": {
    "Asset ID":"HY9990449",
    "Address":"15 TOPVIEW CRT",
    "District":"D3 - North York"
    }
  },
  {
    "type": "Feature",
    "geometry": {
       "type": "Point",
       "coordinates":  [ -79.20589,43.80085 ]
    },
    "properties": {
    "Asset ID":"HY139045",
    "Address":"SHEPPARD BRENYON E1  80m EAST OF BRENYON WAY",
    "District":"D4 - Scarborough"
    }
  },
  {
    "type": "Feature",
    "geometry": {
       "type": "Point",
       "coordinates":  [ -79.51953,43.72079 ]
    },
    "properties": {
    "Asset ID":"HY4014079",
    "Address":"170m North 10 JETHRO RD",
    "District":"D2 - Etobicoke - York"
    }
  },
  {
    "type": "Feature",
    "geometry": {
       "type": "Point",
       "coordinates":  [ -79.51524,43.72059 ]
    },
    "properties": {
    "Asset ID":"HY4010642",
    "Address":"1 SNOWDEN ST",
    "District":"D2 - Etobicoke - York"
    }
  },
  {
    "type": "Feature",
    "geometry": {
       "type": "Point",
       "coordinates":  [ -79.35516,43.75787 ]
    },
    "properties": {
    "Asset ID":"HY4025606",
    "Address":"43 55 LESMILL RD",
    "District":"D3 - North York"
    }
  },
  {
    "type": "Feature",
    "geometry": {
       "type": "Point",
       "coordinates":  [ -79.34482,43.76459 ]
    },
    "properties": {
    "Asset ID":"HY4005608",
    "Address":"OPP 75 GRAYDON HALL DR NW CORNER OF GRAYDON HALL DR AND GRAYDON HALL PL",
    "District":"D3 - North York"
    }
  },
  {
    "type": "Feature",
    "geometry": {
       "type": "Point",
       "coordinates":  [ -79.50503,43.69041 ]
    },
    "properties": {
    "Asset ID":"HY206",
    "Address":"60 FOREST POINT DR",
    "District":"D2 - Etobicoke - York"
    }
  },
  {
    "type": "Feature",
    "geometry": {
       "type": "Point",
       "coordinates":  [ -79.37050,43.74909 ]
    },
    "properties": {
    "Asset ID":"HY4036006",
    "Address":"24 CHIPSTEAD RD",
    "District":"D3 - North York"
    }
  },
  {
    "type": "Feature",
    "geometry": {
       "type": "Point",
       "coordinates":  [ -79.52161,43.69447 ]
    },
    "properties": {
    "Asset ID":"HY2004118",
    "Address":"18 LEGGETT AVE",
    "District":"D2 - Etobicoke - York"
    }
  },
  {
    "type": "Feature",
    "geometry": {
       "type": "Point",
       "coordinates":  [ -79.53123,43.70299 ]
    },
    "properties": {
    "Asset ID":"HY2003517",
    "Address":"65 RIVERVIEW HTS",
    "District":"D2 - Etobicoke - York"
    }
  },
  {
    "type": "Feature",
    "geometry": {
       "type": "Point",
       "coordinates":  [ -79.37977,43.77618 ]
    },
    "properties": {
    "Asset ID":"HY4039176",
    "Address":"34 FLAREMORE CRES",
    "District":"D3 - North York"
    }
  },
  {
    "type": "Feature",
    "geometry": {
       "type": "Point",
       "coordinates":  [ -79.37728,43.78088 ]
    },
    "properties": {
    "Asset ID":"HY4036640",
    "Address":"30 RESTWELL CRES",
    "District":"D3 - North York"
    }
  },
  {
    "type": "Feature",
    "geometry": {
       "type": "Point",
       "coordinates":  [ -79.50188,43.70078 ]
    },
    "properties": {
    "Asset ID":"HY4024606",
    "Address":"29 PAMILLE PL",
    "District":"D2 - Etobicoke - York"
    }
  },
  {
    "type": "Feature",
    "geometry": {
       "type": "Point",
       "coordinates":  [ -79.43394,43.72931 ]
    },
    "properties": {
    "Asset ID":"HY13209",
    "Address":"23 BAYCREST AVE ACROSS. 2nd HYDRANT WEST OF BATHURST ST",
    "District":"D3 - North York"
    }
  },
  {
    "type": "Feature",
    "geometry": {
       "type": "Point",
       "coordinates":  [ -79.52620,43.59804 ]
    },
    "properties": {
    "Asset ID":"HY2008507",
    "Address":"36 DAISY AVE",
    "District":"D2 - Etobicoke - York"
    }
  },
  {
    "type": "Feature",
    "geometry": {
       "type": "Point",
       "coordinates":  [ -79.26145,43.81220 ]
    },
    "properties": {
    "Asset ID":"HY140316",
    "Address":"WHITELEY CASTLE CR 62",
    "District":"D4 - Scarborough"
    }
  },
  {
    "type": "Feature",
    "geometry": {
       "type": "Point",
       "coordinates":  [ -79.45930,43.75721 ]
    },
    "properties": {
    "Asset ID":"HY4029715",
    "Address":"282 BRIGHTON AVE",
    "District":"D3 - North York"
    }
  },
  {
    "type": "Feature",
    "geometry": {
       "type": "Point",
       "coordinates":  [ -79.44880,43.64590 ]
    },
    "properties": {
    "Asset ID":"HY1360230",
    "Address":"225 RONCESVALLES AVE",
    "District":"D1 - Toronto-East York"
    }
  },
  {
    "type": "Feature",
    "geometry": {
       "type": "Point",
       "coordinates":  [ -79.28094,43.79969 ]
    },
    "properties": {
    "Asset ID":"HY144084",
    "Address":"127 CROCKAMHILL DR",
    "District":"D4 - Scarborough"
    }
  },
  {
    "type": "Feature",
    "geometry": {
       "type": "Point",
       "coordinates":  [ -79.29838,43.77739 ]
    },
    "properties": {
    "Asset ID":"HY138739",
    "Address":"65 MORAINE HILL DR",
    "District":"D4 - Scarborough"
    }
  },
  {
    "type": "Feature",
    "geometry": {
       "type": "Point",
       "coordinates":  [ -79.35175,43.79084 ]
    },
    "properties": {
    "Asset ID":"HY4023488",
    "Address":"615 SENECA HILL DR",
    "District":"D3 - North York"
    }
  },
  {
    "type": "Feature",
    "geometry": {
       "type": "Point",
       "coordinates":  [ -79.46218,43.69639 ]
    },
    "properties": {
    "Asset ID":"HY1855",
    "Address":"96 SNIDER AVE",
    "District":"D3 - North York"
    }
  },
  {
    "type": "Feature",
    "geometry": {
       "type": "Point",
       "coordinates":  [ -79.41257,43.63901 ]
    },
    "properties": {
    "Asset ID":"HY22796",
    "Address":"46 EAST LIBERTY ST",
    "District":"D1 - Toronto-East York"
    }
  },
  {
    "type": "Feature",
    "geometry": {
       "type": "Point",
       "coordinates":  [ -79.37539,43.71154 ]
    },
    "properties": {
    "Asset ID":"HY3003921",
    "Address":"635 EGLINTON AVE E",
    "District":"D3 - North York"
    }
  },
  {
    "type": "Feature",
    "geometry": {
       "type": "Point",
       "coordinates":  [ -79.35337,43.78610 ]
    },
    "properties": {
    "Asset ID":"HY4023376",
    "Address":"201 VAN HORNE AVE ON WEST SIDE OF DON MILLS RD W 2ND SOUTH OF VAN HORNE AVE",
    "District":"D3 - North York"
    }
  },
  {
    "type": "Feature",
    "geometry": {
       "type": "Point",
       "coordinates":  [ -79.49743,43.64425 ]
    },
    "properties": {
    "Asset ID":"HY2005964",
    "Address":"70 GLENADEN AVE E",
    "District":"D2 - Etobicoke - York"
    }
  },
  {
    "type": "Feature",
    "geometry": {
       "type": "Point",
       "coordinates":  [ -79.42325,43.63288 ]
    },
    "properties": {
    "Asset ID":"HY24375",
    "Address":"15 SASKATCHEWAN RD",
    "District":"D1 - Toronto-East York"
    }
  },
  {
    "type": "Feature",
    "geometry": {
       "type": "Point",
       "coordinates":  [ -79.41686,43.63376 ]
    },
    "properties": {
    "Asset ID":"HY24178",
    "Address":"15 NOVA SCOTIA AVE",
    "District":"D1 - Toronto-East York"
    }
  },
  {
    "type": "Feature",
    "geometry": {
       "type": "Point",
       "coordinates":  [ -79.41562,43.63344 ]
    },
    "properties": {
    "Asset ID":"HY24179",
    "Address":"135 PRINCES BLVD",
    "District":"D1 - Toronto-East York"
    }
  },
  {
    "type": "Feature",
    "geometry": {
       "type": "Point",
       "coordinates":  [ -79.41250,43.63707 ]
    },
    "properties": {
    "Asset ID":"HY24515",
    "Address":"20 MANITOBA DR",
    "District":"D1 - Toronto-East York"
    }
  },
  {
    "type": "Feature",
    "geometry": {
       "type": "Point",
       "coordinates":  [ -79.42079,43.63361 ]
    },
    "properties": {
    "Asset ID":"HY24295",
    "Address":"80 QUEBEC ST",
    "District":"D1 - Toronto-East York"
    }
  },
  {
    "type": "Feature",
    "geometry": {
       "type": "Point",
       "coordinates":  [ -79.41386,43.63369 ]
    },
    "properties": {
    "Asset ID":"HY30493",
    "Address":"100 PRINCES BLVD",
    "District":"D1 - Toronto-East York"
    }
  },
  {
    "type": "Feature",
    "geometry": {
       "type": "Point",
       "coordinates":  [ -79.41968,43.63521 ]
    },
    "properties": {
    "Asset ID":"HY24277",
    "Address":"10 NOVA SCOTIA AVE",
    "District":"D1 - Toronto-East York"
    }
  },
  {
    "type": "Feature",
    "geometry": {
       "type": "Point",
       "coordinates":  [ -79.41664,43.63338 ]
    },
    "properties": {
    "Asset ID":"HY24180",
    "Address":"135 PRINCES BLVD",
    "District":"D1 - Toronto-East York"
    }
  },
  {
    "type": "Feature",
    "geometry": {
       "type": "Point",
       "coordinates":  [ -79.42427,43.63099 ]
    },
    "properties": {
    "Asset ID":"HY23815",
    "Address":"1 YUKON PL",
    "District":"D1 - Toronto-East York"
    }
  },
  {
    "type": "Feature",
    "geometry": {
       "type": "Point",
       "coordinates":  [ -79.42205,43.63151 ]
    },
    "properties": {
    "Asset ID":"HY24255",
    "Address":"60 PRINCE EDWARD ISLAND CRES",
    "District":"D1 - Toronto-East York"
    }
  },
  {
    "type": "Feature",
    "geometry": {
       "type": "Point",
       "coordinates":  [ -79.41195,43.63649 ]
    },
    "properties": {
    "Asset ID":"HY24516",
    "Address":"8 MANITOBA DR",
    "District":"D1 - Toronto-East York"
    }
  },
  {
    "type": "Feature",
    "geometry": {
       "type": "Point",
       "coordinates":  [ -79.42335,43.63183 ]
    },
    "properties": {
    "Asset ID":"HY23915",
    "Address":"15 SASKATCHEWAN RD",
    "District":"D1 - Toronto-East York"
    }
  },
  {
    "type": "Feature",
    "geometry": {
       "type": "Point",
       "coordinates":  [ -79.54143,43.76681 ]
    },
    "properties": {
    "Asset ID":"HY4009661",
    "Address":"233 SIGNET DR",
    "District":"D2 - Etobicoke - York"
    }
  },
  {
    "type": "Feature",
    "geometry": {
       "type": "Point",
       "coordinates":  [ -79.51030,43.71472 ]
    },
    "properties": {
    "Asset ID":"HY9990726",
    "Address":"35 SUNTRACT RD AT SE CORNER OF SUNTRACT RD AND GORDON MACKAY RD",
    "District":"D2 - Etobicoke - York"
    }
  },
  {
    "type": "Feature",
    "geometry": {
       "type": "Point",
       "coordinates":  [ -79.30370,43.66845 ]
    },
    "properties": {
    "Asset ID":"HY9990688",
    "Address":"90 KIPPENDAVIE AVE",
    "District":"D1 - Toronto-East York"
    }
  },
  {
    "type": "Feature",
    "geometry": {
       "type": "Point",
       "coordinates":  [ -79.53180,43.63834 ]
    },
    "properties": {
    "Asset ID":"HY9990667",
    "Address":"OPP 373 MUNSTER AVE 1ST WEST OF FIELDWAY RD",
    "District":"D2 - Etobicoke - York"
    }
  },
  {
    "type": "Feature",
    "geometry": {
       "type": "Point",
       "coordinates":  [ -79.52806,43.64517 ]
    },
    "properties": {
    "Asset ID":"HY9990652",
    "Address":"41 MABELLE AVE 3DR WEST OF CORDOVA AVE ON SOUTH SIDE OF THE ROAD",
    "District":"D2 - Etobicoke - York"
    }
  },
  {
    "type": "Feature",
    "geometry": {
       "type": "Point",
       "coordinates":  [ -79.36499,43.65917 ]
    },
    "properties": {
    "Asset ID":"HY21348",
    "Address":"63 ARNOLD AVE",
    "District":"D1 - Toronto-East York"
    }
  },
  {
    "type": "Feature",
    "geometry": {
       "type": "Point",
       "coordinates":  [ -79.17119,43.79667 ]
    },
    "properties": {
    "Asset ID":"HY30605",
    "Address":"27 FAWNRIDGE TRL NORTHEND",
    "District":"D4 - Scarborough"
    }
  },
  {
    "type": "Feature",
    "geometry": {
       "type": "Point",
       "coordinates":  [ -79.36478,43.65829 ]
    },
    "properties": {
    "Asset ID":"HY22255",
    "Address":"OPP 16 ST DAVID ST",
    "District":"D1 - Toronto-East York"
    }
  },
  {
    "type": "Feature",
    "geometry": {
       "type": "Point",
       "coordinates":  [ -79.19314,43.77280 ]
    },
    "properties": {
    "Asset ID":"HY9990553",
    "Address":"9A PICKFORD RD",
    "District":"D4 - Scarborough"
    }
  },
  {
    "type": "Feature",
    "geometry": {
       "type": "Point",
       "coordinates":  [ -79.42255,43.66794 ]
    },
    "properties": {
    "Asset ID":"HY9990591",
    "Address":"OPP 57 ESSEX ST",
    "District":"D1 - Toronto-East York"
    }
  },
  {
    "type": "Feature",
    "geometry": {
       "type": "Point",
       "coordinates":  [ -79.30292,43.69040 ]
    },
    "properties": {
    "Asset ID":"HY9990528",
    "Address":"366 MAIN ST",
    "District":"D1 - Toronto-East York"
    }
  },
  {
    "type": "Feature",
    "geometry": {
       "type": "Point",
       "coordinates":  [ -79.33462,43.73108 ]
    },
    "properties": {
    "Asset ID":"HY9990535",
    "Address":"16  DALLIMORE CIRCLE",
    "District":"D3 - North York"
    }
  },
  {
    "type": "Feature",
    "geometry": {
       "type": "Point",
       "coordinates":  [ -79.42107,43.79111 ]
    },
    "properties": {
    "Asset ID":"HY9990501",
    "Address":"26 HOMEWOOD AVE ON LARIVIERE RD ACROSS 45 GOULDING AVE",
    "District":"D3 - North York"
    }
  },
  {
    "type": "Feature",
    "geometry": {
       "type": "Point",
       "coordinates":  [ -79.59318,43.71311 ]
    },
    "properties": {
    "Asset ID":"HY9990606",
    "Address":"2ND HYDRANT NORTH OF VICE REGENT BLVD EAST OF HWY 27 IN A FIELD",
    "District":"D2 - Etobicoke - York"
    }
  },
  {
    "type": "Feature",
    "geometry": {
       "type": "Point",
       "coordinates":  [ -79.48716,43.62681 ]
    },
    "properties": {
    "Asset ID":"HY9990701",
    "Address":"South of GARDINER WB ramp on east side of PARK LAWN RD",
    "District":"D2 - Etobicoke - York"
    }
  },
  {
    "type": "Feature",
    "geometry": {
       "type": "Point",
       "coordinates":  [ -79.17628,43.77395 ]
    },
    "properties": {
    "Asset ID":"HY9990554",
    "Address":"WEST SIDE OF 75 PLUMROSE BLVD",
    "District":"D4 - Scarborough"
    }
  },
  {
    "type": "Feature",
    "geometry": {
       "type": "Point",
       "coordinates":  [ -79.29843,43.68996 ]
    },
    "properties": {
    "Asset ID":"HY9990715",
    "Address":"75 COLEMAN AVE",
    "District":"D1 - Toronto-East York"
    }
  },
  {
    "type": "Feature",
    "geometry": {
       "type": "Point",
       "coordinates":  [ -79.34181,43.69413 ]
    },
    "properties": {
    "Asset ID":"HY3004417",
    "Address":"96 LESMOUNT AVE",
    "District":"D1 - Toronto-East York"
    }
  },
  {
    "type": "Feature",
    "geometry": {
       "type": "Point",
       "coordinates":  [ -79.44640,43.70533 ]
    },
    "properties": {
    "Asset ID":"HY4039747",
    "Address":"7 STEVEN AVE",
    "District":"D3 - North York"
    }
  },
  {
    "type": "Feature",
    "geometry": {
       "type": "Point",
       "coordinates":  [ -79.32346,43.81773 ]
    },
    "properties": {
    "Asset ID":"HY129332",
    "Address":"34 EAGLEVIEW CRES",
    "District":"D4 - Scarborough"
    }
  },
  {
    "type": "Feature",
    "geometry": {
       "type": "Point",
       "coordinates":  [ -79.47996,43.64877 ]
    },
    "properties": {
    "Asset ID":"HY1361380",
    "Address":"339A WINDERMERE AVE. 356 WINDERMERE AVE. SWANSEA DANCE SCHOOL.[MARKER INSTALLED]",
    "District":"D2 - Etobicoke - York"
    }
  },
  {
    "type": "Feature",
    "geometry": {
       "type": "Point",
       "coordinates":  [ -79.49679,43.69036 ]
    },
    "properties": {
    "Asset ID":"HY3399",
    "Address":"24 RUTHERFORD AVE",
    "District":"D2 - Etobicoke - York"
    }
  },
  {
    "type": "Feature",
    "geometry": {
       "type": "Point",
       "coordinates":  [ -79.43945,43.63872 ]
    },
    "properties": {
    "Asset ID":"HY1354216",
    "Address":"166 DOWLING AVE",
    "District":"D1 - Toronto-East York"
    }
  },
  {
    "type": "Feature",
    "geometry": {
       "type": "Point",
       "coordinates":  [ -79.28344,43.72077 ]
    },
    "properties": {
    "Asset ID":"HY136032",
    "Address":"17 MALLEY RD",
    "District":"D4 - Scarborough"
    }
  },
  {
    "type": "Feature",
    "geometry": {
       "type": "Point",
       "coordinates":  [ -79.58436,43.66527 ]
    },
    "properties": {
    "Asset ID":"HY2004289",
    "Address":"36 GENTIAN DR",
    "District":"D2 - Etobicoke - York"
    }
  },
  {
    "type": "Feature",
    "geometry": {
       "type": "Point",
       "coordinates":  [ -79.50310,43.75104 ]
    },
    "properties": {
    "Asset ID":"HY4034178",
    "Address":"86 FULWELL CRES",
    "District":"D3 - North York"
    }
  },
  {
    "type": "Feature",
    "geometry": {
       "type": "Point",
       "coordinates":  [ -79.31820,43.82096 ]
    },
    "properties": {
    "Asset ID":"HY128786",
    "Address":"STEELES BIRCHMOUNT W1  105m WEST OF BIRCHMOUNT RD",
    "District":"D4 - Scarborough"
    }
  },
  {
    "type": "Feature",
    "geometry": {
       "type": "Point",
       "coordinates":  [ -79.60799,43.74418 ]
    },
    "properties": {
    "Asset ID":"HY10330",
    "Address":"46m North 1765 ALBION RD",
    "District":"D2 - Etobicoke - York"
    }
  },
  {
    "type": "Feature",
    "geometry": {
       "type": "Point",
       "coordinates":  [ -79.45918,43.66327 ]
    },
    "properties": {
    "Asset ID":"HY1361351",
    "Address":"782 INDIAN RD",
    "District":"D1 - Toronto-East York"
    }
  },
  {
    "type": "Feature",
    "geometry": {
       "type": "Point",
       "coordinates":  [ -79.44071,43.72599 ]
    },
    "properties": {
    "Asset ID":"HY4022146",
    "Address":"122 REGINA AVE",
    "District":"D3 - North York"
    }
  },
  {
    "type": "Feature",
    "geometry": {
       "type": "Point",
       "coordinates":  [ -79.29007,43.81748 ]
    },
    "properties": {
    "Asset ID":"HY135141",
    "Address":"25 BECCA HALL TRL",
    "District":"D4 - Scarborough"
    }
  },
  {
    "type": "Feature",
    "geometry": {
       "type": "Point",
       "coordinates":  [ -79.21896,43.75984 ]
    },
    "properties": {
    "Asset ID":"HY137704",
    "Address":"61 HOLMFIRTH TER   HOLMFIRTH GREENCREST E3",
    "District":"D4 - Scarborough"
    }
  },
  {
    "type": "Feature",
    "geometry": {
       "type": "Point",
       "coordinates":  [ -79.29991,43.68309 ]
    },
    "properties": {
    "Asset ID":"HY1356589",
    "Address":"132 MAIN ST",
    "District":"D1 - Toronto-East York"
    }
  },
  {
    "type": "Feature",
    "geometry": {
       "type": "Point",
       "coordinates":  [ -79.50675,43.60456 ]
    },
    "properties": {
    "Asset ID":"HY2008671",
    "Address":"233 ISLINGTON AVE",
    "District":"D2 - Etobicoke - York"
    }
  },
  {
    "type": "Feature",
    "geometry": {
       "type": "Point",
       "coordinates":  [ -79.45102,43.65211 ]
    },
    "properties": {
    "Asset ID":"HY20955",
    "Address":"OPP 11 RITCHIE AVE 1ST EAST OF RONCESVALLES AVE ON NORTH SIDE OF THE ROAD",
    "District":"D1 - Toronto-East York"
    }
  },
  {
    "type": "Feature",
    "geometry": {
       "type": "Point",
       "coordinates":  [ -79.35702,43.65294 ]
    },
    "properties": {
    "Asset ID":"HY1363426",
    "Address":"416 FRONT ST E",
    "District":"D1 - Toronto-East York"
    }
  },
  {
    "type": "Feature",
    "geometry": {
       "type": "Point",
       "coordinates":  [ -79.28620,43.82380 ]
    },
    "properties": {
    "Asset ID":"HY134573",
    "Address":"67 LORNA RAE BLVD",
    "District":"D4 - Scarborough"
    }
  },
  {
    "type": "Feature",
    "geometry": {
       "type": "Point",
       "coordinates":  [ -79.60082,43.72545 ]
    },
    "properties": {
    "Asset ID":"HY12734",
    "Address":"130 TRIPLE CROWN AVE",
    "District":"D2 - Etobicoke - York"
    }
  },
  {
    "type": "Feature",
    "geometry": {
       "type": "Point",
       "coordinates":  [ -79.30483,43.74651 ]
    },
    "properties": {
    "Asset ID":"HY133940",
    "Address":"10 BRIAN AVE",
    "District":"D4 - Scarborough"
    }
  },
  {
    "type": "Feature",
    "geometry": {
       "type": "Point",
       "coordinates":  [ -79.37392,43.66505 ]
    },
    "properties": {
    "Asset ID":"HY1354163",
    "Address":"416 418 SHERBOURNE ST",
    "District":"D1 - Toronto-East York"
    }
  },
  {
    "type": "Feature",
    "geometry": {
       "type": "Point",
       "coordinates":  [ -79.43336,43.68253 ]
    },
    "properties": {
    "Asset ID":"HY315",
    "Address":"21m South 22 DUNDURN CRES",
    "District":"D1 - Toronto-East York"
    }
  },
  {
    "type": "Feature",
    "geometry": {
       "type": "Point",
       "coordinates":  [ -79.46944,43.69393 ]
    },
    "properties": {
    "Asset ID":"HY1687",
    "Address":"50 LONBOROUGH AVE",
    "District":"D2 - Etobicoke - York"
    }
  },
  {
    "type": "Feature",
    "geometry": {
       "type": "Point",
       "coordinates":  [ -79.48951,43.70737 ]
    },
    "properties": {
    "Asset ID":"HY4024757",
    "Address":"16 JACINTA DR",
    "District":"D2 - Etobicoke - York"
    }
  },
  {
    "type": "Feature",
    "geometry": {
       "type": "Point",
       "coordinates":  [ -79.20258,43.74359 ]
    },
    "properties": {
    "Asset ID":"HY127986",
    "Address":"10M W  OF 4 BOURNVILLE DR",
    "District":"D4 - Scarborough"
    }
  },
  {
    "type": "Feature",
    "geometry": {
       "type": "Point",
       "coordinates":  [ -79.57512,43.64199 ]
    },
    "properties": {
    "Asset ID":"HY2005254",
    "Address":"133 SATURN RD",
    "District":"D2 - Etobicoke - York"
    }
  },
  {
    "type": "Feature",
    "geometry": {
       "type": "Point",
       "coordinates":  [ -79.46523,43.68608 ]
    },
    "properties": {
    "Asset ID":"HY2680",
    "Address":"51 DUNRAVEN DR",
    "District":"D2 - Etobicoke - York"
    }
  },
  {
    "type": "Feature",
    "geometry": {
       "type": "Point",
       "coordinates":  [ -79.19556,43.77221 ]
    },
    "properties": {
    "Asset ID":"HY136098",
    "Address":"8 SILVERTIP CRES",
    "District":"D4 - Scarborough"
    }
  },
  {
    "type": "Feature",
    "geometry": {
       "type": "Point",
       "coordinates":  [ -79.40959,43.64512 ]
    },
    "properties": {
    "Asset ID":"HY1355789",
    "Address":"35m South 289 NIAGARA ST",
    "District":"D1 - Toronto-East York"
    }
  },
  {
    "type": "Feature",
    "geometry": {
       "type": "Point",
       "coordinates":  [ -79.30694,43.82151 ]
    },
    "properties": {
    "Asset ID":"HY130553",
    "Address":"37 NEW FOREST SQ",
    "District":"D4 - Scarborough"
    }
  },
  {
    "type": "Feature",
    "geometry": {
       "type": "Point",
       "coordinates":  [ -79.35024,43.71846 ]
    },
    "properties": {
    "Asset ID":"HY4017397",
    "Address":"1101 LESLIE ST  1ST NORTH OF EGLINGTON ON EAST SIDE",
    "District":"D3 - North York"
    }
  },
  {
    "type": "Feature",
    "geometry": {
       "type": "Point",
       "coordinates":  [ -79.33428,43.71951 ]
    },
    "properties": {
    "Asset ID":"HY4015468",
    "Address":"17 WILKET CREEK RD",
    "District":"D3 - North York"
    }
  },
  {
    "type": "Feature",
    "geometry": {
       "type": "Point",
       "coordinates":  [ -79.37952,43.61516 ]
    },
    "properties": {
    "Asset ID":"HY9990081",
    "Address":"30 Centre Island Park",
    "District":"D1 - Toronto-East York"
    }
  },
  {
    "type": "Feature",
    "geometry": {
       "type": "Point",
       "coordinates":  [ -79.48476,43.62498 ]
    },
    "properties": {
    "Asset ID":"HY27376",
    "Address":"OPP 90 PARK LAWN RD ON EAST SIDE OF THE ROAD BEFORE CNR BRIDGE",
    "District":"D2 - Etobicoke - York"
    }
  },
  {
    "type": "Feature",
    "geometry": {
       "type": "Point",
       "coordinates":  [ -79.27699,43.82917 ]
    },
    "properties": {
    "Asset ID":"HY129783",
    "Address":"52 WILDERNESS DR",
    "District":"D4 - Scarborough"
    }
  },
  {
    "type": "Feature",
    "geometry": {
       "type": "Point",
       "coordinates":  [ -79.54179,43.74227 ]
    },